ID,STATION_ID,CATEGORY,LONGITUDE,LATITUDE,MB_SYMBOL,NAME_ENG,NAME_NAT,SYMBOL,TSO,VISIBLE,VOLTAGE
962,1142,0,40.155029,34.370645,substation,Substation T2, ,Substation, ,1,220
963,1143,0,36.320801,35.648369,substation,Zyzoun PP, ,Substation, ,1,220
964,1144,0,40.847168,36.129002,substation,Tel Hamis Sub, ,Substation, ,1,220
965,1145,0,36.35376,35.746512,substation,Zyzoun, ,Substation, ,1,220
966,1145,0,36.35376,35.746512,substation,Zyzoun, ,Substation, ,1,380
967,1146,0,35.826416,35.612651,substation,Skobeen, ,Substation, ,1,220
968,1147,0,36.35376,35.272532,substation,Salhab, ,Substation, ,1,220
969,1148,0,37.012939,36.368222,substation,Hretan, ,Substation, ,1,220
970,1149,0,36.188965,33.431441,substation,Forsan, ,Substation, ,1,220
971,1150,0,36.210938,32.694866,substation,Garyiah W, ,Substation, ,1,220
972,1151,0,36.870117,34.470335,substation,Jander Power Plant, ,Substation, ,1,220
973,1151,0,36.870117,34.470335,substation,Jander Power Plant, ,Substation, ,1,380
974,1152,0,36.617432,34.660322,substation,Qatteneh, ,Substation, ,1,220
975,1153,0,38.979492,35.969115,substation,Raqqa 1, ,Substation, ,1,220
976,1154,0,38.562012,35.85344,substation,Thawra, ,Substation, ,1,220
977,1154,0,38.562012,35.85344,substation,Thawra, ,Substation, ,1,380
978,1155,0,35.90332,34.894942,substation,Tartous, ,Substation, ,1,220
979,1156,0,35.980225,35.164828,substation,Banias Power Plant, ,Substation, ,1,220
980,1157,0,35.980225,35.398006,substation,Jableh, ,Substation, ,1,220
981,1158,0,35.826416,35.514343,substation,Latakia, ,Substation, ,1,220
6761,7601,,7.63549799999999,36.721274,,,,joint,,,220
6762,7602,,7.51407360651618,36.4206251875124,,,,joint,,,220
982,1159,0,36.760254,34.723555,substation,Ferrouzeh, ,Substation, ,1,220
983,1160,0,36.749268,35.173808,substation,Hama 1, ,Substation, ,1,220
984,1161,0,36.584473,35.263562,substation,Mehrade Power Plant / Sub, ,Substation, ,1,220
985,1162,0,36.661377,34.957995,substation,Zara PP, ,Substation, ,1,220
986,1163,0,36.573486,32.667125,substation,Sweida, ,Substation, ,1,220
987,1164,0,36.112061,32.583849,substation,Daraa, ,Substation, ,1,220
988,1165,0,36.177979,32.833443,substation,Cheick Meskeen, ,Substation, ,1,220
1,2,,43.7146,36.129002,substation,Irbil North, ,Substation,,1,380
989,1166,0,36.254883,33.330528,substation,Kisweh, ,Substation, ,1,220
990,1167,0,36.705322,33.568861,substation,Adra NE -  Ind. 1, ,Substation, ,1,220
2,3,,43.967285,35.46067,substation,Tamem, ,Substation,,1,380
991,1168,0,36.77124,33.806538,substation,Nasrieh, ,Substation, ,1,220
992,1168,0,36.77124,33.806538,substation,Nasrieh, ,Substation, ,1,380
3,4,,44.813232,31.456782,substation,An Nasirriyah, ,Substation,,1,380
4,5,,43.967285,32.184911,substation,Karbala, ,Substation,,1,380
993,1169,0,36.320801,33.26625,substation,Deir Ali Power Plant / Sub, ,Substation, ,1,220
994,1169,0,36.320801,33.26625,substation,Deir Ali Power Plant / Sub, ,Substation, ,1,380
5,6,,44.01123,32.704111,substation,Mussaib, ,Substation,,1,380
6,7,,44.439697,33.449777,substation,Bagdad South, ,Substation,,1,380
7,8,,44.219971,33.806538,substation,Bagdad North, ,Substation,,1,380
995,1170,0,40.770264,36.456636,substation,Hasakeh, ,Substation, ,1,220
8,9,,44.494629,33.715202,substation,Bagdad East, ,Substation,,1,380
996,1171,0,41.187744,36.967449,substation,Qamishly, ,Substation, ,1,220
9,10,,44.088135,33.669497,substation,Bagdad West, ,Substation,,1,380
997,1172,0,38.276367,34.569906,substation,Palmera, ,Substation, ,1,220
998,1172,0,38.276367,34.569906,substation,Palmera, ,Substation, ,1,380
10,11,,45.20874,32.42634,substation,Al Kut, ,Substation,,1,380
11,16,,48.153076,42.032974,substation,Derbent,Дербент,Substation,,1,300
999,1173,0,36.551514,33.614619,substation,Adra, ,Substation, ,1,220
1000,1173,0,36.551514,33.614619,substation,Adra, ,Substation, ,1,380
12,17,,48.88916,41.211722,substation,Khachmas, ,Substation,,1,300
13,18,,44.472656,38.030786,substation,Khoy, ,Substation,,1,380
1001,1174,0,36.331787,33.578015,substation,Mazara, ,Substation, ,1,220
14,19,,43.758545,39.078908,substation,Agri, ,Substation,,1,380
1002,1175,0,36.298828,33.422272,substation,Sbeneh N (M2), ,Substation, ,1,220
6763,7603,,7.9761053553417,36.6945543261351,,,,joint,,,220
6764,7603,,7.9761053553417,36.6945543261351,,,,joint,,,380
15,20,,43.725586,37.848833,substation,Baskale, ,Substation,,1,380
1003,1176,0,36.606445,36.013561,substation,Idlib, ,Substation, ,1,220
16,21,,44.088135,39.707187,substation,Igdir, ,Substation,,1,132
1004,1177,0,37.353516,36.173357,substation,F, ,Substation, ,1,220
1005,1177,0,37.353516,36.173357,substation,F, ,Substation, ,1,380
17,22,,48.482666,41.828642,substation,Belidzhi,Белиджи,Substation,,1,132
1006,1178,0,37.012939,36.261992,substation,H, ,Substation, ,1,220
18,23,,44.813232,39.172659,substation,Babak, ,Substation,,1,132
1007,1179,0,40.100098,35.335293,substation,Deir Al Zoor 1, ,Substation, ,1,220
1008,1179,0,40.100098,35.335293,substation,Deir Al Zoor 1, ,Substation, ,1,380
19,24,,44.527588,38.728376,substation,Bazargan, ,Substation,,1,132
1009,1180,0,40.045166,35.245619,substation,Taiym, ,Substation, ,1,220
1010,1180,0,40.045166,35.245619,substation,Taiym, ,Substation, ,1,380
1011,1181,,-8.82202099999999,38.582526,substation,Palmela, ,Substation,,1,380
20,25,,44.099121,38.942321,substation,D.Beyazit, ,Substation,,1,132
1012,1182,0,40.682373,34.741612,substation,Dwear, ,Substation, ,1,220
1013,1183,0,38.078613,36.013561,substation,Maskanah E, ,Substation, ,1,220
21,26,,48.702393,41.599013,substation,unknown, ,Substation,,1,132
1014,1184,0,38.17749,36.377068,substation,Tshreen PP, ,Substation, ,1,220
1015,1184,0,38.17749,36.377068,substation,Tshreen PP, ,Substation, ,1,380
22,27,,44.055176,40.838749,substation,unknown,unknown,Substation,,1,380
1016,1185,0,38.265381,36.279707,substation,Tshreen, ,Substation, ,1,220
23,28,0,10.140381,36.73008,substation,Tunis, ,Substation, ,1,132
1017,1186,0,38.012695,36.093499,substation,Maskanah W, ,Substation, ,1,220
1018,1187,0,37.353516,36.332828,substation,Inds. 1, ,Substation, ,1,220
24,29,,35.046387,32.500496,substation,unknown, ,Substation,,1,132
25,29,,35.046387,32.500496,substation,unknown, ,Substation,,1,380
1019,1188,0,37.155762,36.315125,substation,B, ,Substation, ,1,220
26,30,,8.492432,40.522151,substation,Ittiri, ,Substation,,1,380
1020,1189,0,36.694336,35.666222,substation,Maarat an-Numan NE, ,Substation, ,1,220
6723,7564,,-0.977046660853815,37.9617462863245,,,,joint,,,380
1021,1190,0,38.858643,36.368222,substation,Mabroka, ,Substation, ,1,220
6724,7565,,-0.76904300000001,39.436193,,,,joint,,,380
1022,1191,0,36.914062,36.049099,substation,Aleppo W, ,Substation, ,1,220
1023,1191,0,36.914062,36.049099,substation,Aleppo W, ,Substation, ,1,380
6725,7566,,-0.296630999999993,40.195659,,,,joint,,,380
1486,1788,,2.49389600000001,39.563353,converter,Santa Ponsa, ,Converter Station,,1,220
27,31,0,15.249023,30.836215,substation, , ,Substation, ,1,220
28,32,,43.26416,35.995785,substation,Mosul, ,Substation,,1,380
1024,1192,0,42.121582,36.949892,substation,Swedieh PP, ,Substation, ,1,220
1025,1192,0,42.121582,36.949892,substation,Swedieh PP, ,Substation, ,1,380
29,33,,42.758789,36.332828,substation,Saddam Dam, ,Substation,,1,380
1026,1193,0,35.947266,35.585852,substation,Latakia E, ,Substation, ,1,220
1027,1193,0,35.947266,35.585852,substation,Latakia E, ,Substation, ,1,380
30,34,,43.406982,35.083956,substation,Baji, ,Substation,,1,380
1028,1194,0,36.68335,33.413102,substation,Tishren PP, ,Substation, ,1,220
1029,1195,0,38.781738,35.826721,substation,Baath Power Plant / Sub, ,Substation, ,1,220
31,35,,42.1875,34.397845,substation,Qaim, ,Substation,,1,380
1030,1196,0,36.276855,32.147711,substation,Dhuliel, ,Substation, ,1,132
1031,1197,0,36.057129,32.333559,substation,Rehab, ,Substation, ,1,132
32,36,,42.868652,34.615127,substation,Qadessiya, ,Substation,,1,380
1032,1198,0,38.199463,32.49123,substation,Ruwished, ,Substation, ,1,132
1033,1199,0,36.013184,31.222197,substation,Qatrana SW, ,Substation, ,1,132
1034,1199,0,36.013184,31.222197,substation,Qatrana SW, ,Substation, ,1,380
33,42,,35.36499,32.481963,substation_cons,Jenin, ,"Substation, under construction",,1,132
1035,1200,0,35.079346,29.726222,substation,Aqaba N A2, ,Substation, ,1,132
34,43,,35.079346,32.333559,substation_cons,Tul karm, ,"Substation, under construction",,1,132
1036,1201,0,36.134033,29.926374,substation,Shedia, ,Substation, ,1,132
1037,1202,0,35.727539,30.211608,substation,Ma'an, ,Substation, ,1,132
35,46,,34.760742,31.147006,substation,Beer Sheva, ,Substation,,1,132
36,46,,34.760742,31.147006,substation,Beer Sheva, ,Substation,,1,380
1038,1203,0,35.299072,29.716681,substation,Quweira, ,Substation, ,1,132
1039,1204,0,35.068359,29.391748,substation,Aqaba Power Plant, ,Substation, ,1,132
1040,1204,0,35.068359,29.391748,substation,Aqaba Power Plant, ,Substation, ,1,380
37,47,,35.310059,30.892797,substation,Sdom, ,Substation,,1,132
1041,1205,0,35.727539,31.17521,substation,Karak E, ,Substation, ,1,132
38,48,,34.936523,29.52567,substation,Eilat, ,Substation,,1,132
1042,1206,0,35.518799,31.090574,substation,Safi N PP, ,Substation, ,1,132
1043,1206,0,35.518799,31.090574,substation,Safi N PP, ,Substation, ,1,380
39,49,,34.562988,31.681433,substation,Ashkelon, ,Substation,,1,132
40,49,,34.562988,31.681433,substation,Ashkelon, ,Substation,,1,380
1044,1207,0,36.123047,31.334871,substation,Cement Factory Sub, ,Substation, ,1,132
1045,1208,0,35.881348,31.830899,substation,Amman South, ,Substation, ,1,132
1046,1208,0,35.881348,31.830899,substation,Amman South, ,Substation, ,1,380
41,51,,34.727783,31.961484,substation,Ashdod, ,Substation,,1,380
42,53,,34.94751,32.639375,substation,Hadera, ,Substation,,1,380
1047,1209,0,36.079102,31.896214,substation,Amman East, ,Substation, ,1,132
1048,1209,0,36.079102,31.896214,substation,Amman East, ,Substation, ,1,380
1049,1210,0,36.02417,31.812229,substation,Sahab, ,Substation, ,1,132
1050,1211,0,39.012451,32.574592,substation,El-Risha Power Plant / SUb, ,Substation, ,1,132
43,55,,34.881592,32.194209,substation,Tel-Aviv, ,Substation,,1,380
1051,1212,0,35.870361,32.537552,substation,Irbid, ,Substation, ,1,132
1052,1212,0,35.870361,32.537552,substation,Irbid, ,Substation, ,1,220
44,57,,35.134277,32.898038,substation,Zvulun, ,Substation,,1,380
1053,1213,0,36.474609,32.259265,substation,Sahab, ,Substation, ,1,132
45,64,,35.441895,32.98102,substation,Tiberias, ,Substation,,1,380
1054,1214,0,36.760254,31.868228,substation,Azraq, ,Substation, ,1,132
1055,1215,0,36.23291,31.961484,substation,Al Zarqa SE, ,Substation, ,1,132
46,65,,38.913574,23.513626,substation,Rabigh, ,Substation,,1,380
1056,1216,0,36.14502,32.073266,substation,Al Zarqa, ,Substation, ,1,132
1057,1217,0,35.947266,31.718822,substation,Alia Airport, ,Substation, ,1,132
47,66,,37.540283,24.786735,substation,Yanbo SWCC, ,Substation,,1,380
1058,1218,0,35.584717,31.690782,substation,Suwemeh, ,Substation, ,1,132
48,67,,38.891602,24.437148,substation,Musajeed, ,Substation,,1,380
1059,1219,0,35.90332,31.980123,substation,Tareq, ,Substation, ,1,132
1060,1220,0,35.958252,32.03602,substation,Amman North, ,Substation, ,1,132
1061,1220,0,35.958252,32.03602,substation,Amman North, ,Substation, ,1,380
49,68,,39.572754,24.407138,substation,Al Munwwarah, ,Substation,,1,380
1062,1221,0,36.452637,31.728167,substation,Al Haratha, ,Substation, ,1,132
50,72,,40.155029,22.136532,substation,unknown, ,Substation,,1,380
1063,1222,0,37.122803,32.194209,substation,Safawi, ,Substation, ,1,132
1064,1223,0,35.782471,31.690782,substation,Madaba, ,Substation, ,1,132
51,73,,39.715576,21.983801,substation,Jeddah, ,Substation,,1,380
1065,1224,0,36.02417,32.49123,substation,Hassan Ind., ,Substation, ,1,132
52,77,,39.287109,22.968509,substation,Ipp, ,Substation,,1,380
6765,7604,,7.91065738606274,36.6901069138225,,,,joint,,,220
6766,7604,,7.91065738606274,36.6901069138225,,,,joint,,,380
1066,1225,0,36.199951,32.203505,substation,Samra PP, ,Substation, ,1,132
1067,1225,0,36.199951,32.203505,substation,Samra PP, ,Substation, ,1,380
53,79,,40.495605,27.955591,substation,Hail, ,Substation,,1,
1068,1226,0,9.854736,37.256566,substation,Bizerte, ,Substation, ,1,132
6726,7567,,21.7180373235039,42.03323513796,,,,joint,,,380
1069,1227,0,10.986328,35.415915,substation,Ksour Essef, ,Substation, ,1,132
6727,7568,,22.0618967750988,42.0336041748748,,,,joint,,,380
1070,1228,0,9.12963899999999,35.227672,substation,Sufetula, ,Substation, ,1,132
54,80,,39.638672,24.77676,substation,Al Madina, ,Substation,,1,
1071,1229,0,9.25048800000001,36.456636,substation,Teboursouk, ,Substation, ,1,132
1072,1230,0,41.495361,36.81808,substation,Tel Hamees, ,Substation, ,1,220
55,83,,39.506836,24.716895,substation,Al Madina, ,Substation,,1,380
1073,1231,0,40.946045,36.571424,substation,Al Bouab, ,Substation, ,1,220
1074,1232,0,40.704346,36.049099,substation,Ash Shaddadi, ,Substation, ,1,220
56,84,,39.385986,23.875792,substation,Wadi Al Fara, ,Substation,,1,380
1075,1233,0,40.759277,34.822823,substation,Surat Hafayir, ,Substation, ,1,220
57,86,,39.880371,22.755921,substation,Khulais, ,Substation,,1,380
1076,1234,0,36.68335,32.49123,substation,Salkhad, ,Substation, ,1,220
1077,1235,0,36.386719,33.477272,substation,Zahra, ,Substation, ,1,220
1078,1236,,-7.426758,38.195022,hydro_mixed,Alqueva, ,Hydro mixed pump storage,,1,380
58,87,,40.023193,22.08564,substation,unknown, ,Substation,,1,380
1079,1237,0,37.705078,34.542762,substation,At Tiace, ,Substation, ,1,220
1080,1238,0,35.024414,29.573457,substation,A2, ,Substation, ,1,132
59,88,,39.726562,21.667639,substation,Shoaibah, ,Substation,,1,380
1081,1239,0,35.639648,30.675715,substation,Rashadiya, ,Substation, ,1,132
1082,1240,0,36.123047,31.793555,substation,Mwaqar, ,Substation, ,1,132
60,89,,39.748535,22.156883,substation,unknown, ,Substation,,1,380
1083,1241,0,36.02417,30.836215,substation,Hasa, ,Substation, ,1,132
61,90,,39.715576,22.278931,substation,unknown, ,Substation,,1,380
1084,1242,0,31.376953,22.71539,substation,Islah S, ,Substation, ,1,220
62,91,,39.649658,22.23826,substation,unknown, ,Substation,,1,380
1085,1243,0,31.311035,22.624152,substation,Islah S2, ,Substation, ,1,220
63,92,,39.715576,22.03473,substation,Jeddah, ,Substation,,1,380
1086,1244,0,31.530762,22.988738,substation,Toskha N, ,Substation, ,1,220
64,93,,40.187988,21.851302,substation,unknown, ,Substation,,1,380
65,94,,40.297852,22.09582,substation,Makkah, ,Substation,,1,380
66,95,,40.407715,21.943046,substation,Al Mukarramah, ,Substation,,1,380
6767,7605,,7.481689,36.438961,,,,joint,,,220
67,96,,40.462646,21.71868,substation,Taif, ,Substation,,1,380
6768,7606,,4.3188394101187,36.535027067795,,,,joint,,,220
68,106,,33.09082,35.110922,substation,Orounda, ,Substation,,1,132
1087,1245,0,32.937012,26.02717,substation,Naaga El Shaikh Abou Azouz, ,Substation, ,1,132
1088,1246,0,34.398193,28.042895,substation,Nabq South, ,Substation, ,1,220
69,107,,33.486328,35.110922,substation,Athalassa, ,Substation,,1,132
1089,1247,0,35.705566,32.138409,substation,Subeihi, ,Substation, ,1,132
70,108,,33.321533,35.038992,substation,Tseri, ,Substation,,1,220
1090,1248,0,35.661621,32.546813,substation,Waquas, ,Substation, ,1,132
71,109,,33.387451,34.921971,substation,Alambra, ,Substation,,1,132
1091,1249,0,35.749512,32.054645,substation,Salt, ,Substation, ,1,132
72,110,,33.497314,34.903953,substation,FIZ, ,Substation,,1,132
1092,1250,0,35.782471,32.361403,substation,Ishtafina, ,Substation, ,1,132
73,111,,33.618164,34.939985,substation,Larnaca, ,Substation,,1,132
1093,1251,0,36.013184,31.905541,substation,Al Manara, ,Substation, ,1,132
74,112,,34.046631,35.029996,substation,Protaras, ,Substation,,1,132
1094,1252,0,8.69018599999999,35.746512,substation,Cimenterie oum Elklil, ,Substation, ,1,132
1095,1253,0,36.760254,35.012002,substation,Hama 2, ,Substation, ,1,220
1096,1253,0,36.760254,35.012002,substation,Hama 2, ,Substation, ,1,380
75,113,,33.024902,34.660322,substation,Polemidhia, ,Substation,,1,132
76,114,,32.607422,34.723555,substation,Anatoliko, ,Substation,,1,132
1097,1254,0,36.298828,33.669497,substation,Al Tal, ,Substation, ,1,220
77,115,,33.21167,34.732584,fossil_oil,Moni P.S., ,Fossil oil,,1,132
1098,1255,0,36.419678,33.614619,substation,K2, ,Substation, ,1,220
1099,1256,0,37.276611,36.235412,substation,Saka, ,Substation, ,1,220
78,116,,33.376465,34.759666,fossil_oil,Vasilikos P.S., ,Fossil oil,,1,132
79,116,,33.376465,34.759666,fossil_oil,Vasilikos P.S., ,Fossil oil,,1,220
1100,1257,0,37.188721,36.22655,substation,A, ,Substation, ,1,220
1101,1258,0,36.419678,35.924645,substation,Idlib 2, ,Substation, ,1,220
80,117,,33.804932,34.966999,fossil_oil,Dhekelia P.S., ,Fossil oil,,1,132
1102,1259,0,32.277832,26.234302,substation,Alumn, ,Substation, ,1,132
81,118,,25.806885,41.967659,substation,Uzundzhovo,Узунджово,Substation,,1,220
6728,7569,,12.0410159295506,42.0329739476731,,,,joint,,,380
1103,1260,0,33.793945,27.244863,substation,Elziet, ,Substation, ,1,220
82,119,,24.356689,41.99216,hydro_pure_ps,Orfey,Opфeй,Hydro pure pump storage,,1,220
1104,1261,0,33.640137,27.410786,substation, , ,Substation, ,1,220
83,120,,24.455566,41.746726,hydro_ror,Devin,Девин,Hydro run of river & pondage,,1,220
84,121,,24.32373,41.640078,hydro_ror,Teshel,Тешел,Hydro run of river & pondage,,1,220
1105,1262,0,30.838623,27.313214,substation,Assuit 500, ,Substation, ,1,220
1106,1262,0,30.838623,27.313214,substation,Assuit 500, ,Substation, ,1,500
85,125,,19.511719,41.319076,substation,Rrashbull, ,Substation,,1,220
1107,1263,0,33.222656,28.8158,substation,El Tour, ,Substation, ,1,220
86,126,,19.588623,40.780541,substation,Fier, ,Substation,,1,220
87,127,,19.610596,40.488737,substation,Babice, ,Substation,,1,220
6769,7607,,3.83422906726426,36.173356891404,,,,joint,,,220
88,128,,20.181885,41.054502,substation,Elbasan 2, ,Substation,,1,220
89,128,,20.181885,41.054502,substation,Elbasan 2, ,Substation,,1,380
6770,7608,,3.74633826813229,36.1378745669131,,,,joint,,,220
1108,1264,0,27.498779,30.87394,substation, , ,Substation, ,1,220
90,129,,19.962158,41.162114,substation,Elbasan 1, ,Substation,,1,220
1109,1265,0,24.521484,29.745302,substation, , ,Substation, ,1,132
1110,1266,0,23.884277,31.269161,substation, , ,Substation, ,1,132
91,130,,19.852295,41.385052,substation,Tirana 1, ,Substation,,1,220
1111,1267,0,21.873779,32.787275,substation,X Road, ,Substation, ,1,220
92,131,,20.203857,41.623655,substation,Burrel, ,Substation,,1,220
1112,1268,0,20.214844,31.512996,substation,Gmines, ,Substation, ,1,220
1113,1269,0,13.996582,31.793555,substation,Bani Walid NE, ,Substation, ,1,220
1114,1270,0,13.677979,32.138409,substation, , ,Substation, ,1,220
1115,1271,0,12.359619,32.602362,substation, , ,Substation, ,1,220
93,132,,19.731445,41.360319,substation,Tirana 400, ,Substation,,1,220
94,132,,19.731445,41.360319,substation,Tirana 400, ,Substation,,1,380
1116,1272,0,12.458496,32.546813,substation, , ,Substation, ,1,220
1117,1273,0,12.282715,26.529565,substation,Aoinat, ,Substation, ,1,220
95,133,,20.895996,40.622292,substation,Zemlak, ,Substation,,1,380
96,135,0,12.98584,31.868228,substation, , ,Substation, ,1,220
1118,1274,0,11.99707,31.905541,substation,Shakshouk, ,Substation, ,1,132
1119,1274,0,11.99707,31.905541,substation,Shakshouk, ,Substation, ,1,220
97,136,0,15.358887,29.954935,substation, , ,Substation, ,1,220
98,137,,9.12963899999999,41.426253,converter,Bonifacio, ,Converter Station,,1,
1120,1275,0,13.743896,31.391158,substation, , ,Substation, ,1,220
1121,1276,0,13.348389,31.391158,substation, , ,Substation, ,1,220
99,146,1,22.280273,37.422526,fossil_coal_gas_cons,Megalopoli, ,"Fossil gas, under construction",,-1,380
1122,1277,0,13.238525,32.417066,substation, , ,Substation, ,1,220
100,148,1,24.016113,38.43638,substation,Aliveri, ,Substation,,-1,380
1123,1278,0,34.848633,29.487425,substation,Towiba, ,Substation, ,1,380
101,158,-1,21.137695,39.27479,substation,Arachthos, ,Substation,,-1,380
1124,1307,0,36.265869,32.361403,substation,Mafraq, ,Substation, ,1,132
102,159,-1,21.09375,39.3173,converter,Arachthos, ,Converter Station,,-1,
1125,1335,0,10.986328,33.788279,substation,Midoun, ,Substation, ,1,132
103,160,-1,21.588135,38.659778,substation,Acheloos, ,Substation,,-1,380
1126,1346,,-8.69018599999999,37.848833,fossil_coal_hard,Sines, ,Hard coal,,1,380
104,161,-1,22.939453,40.663973,substation,Thessaloniki, ,Substation,,-1,380
1127,1350,0,10.162354,37.002553,substation,Goulette, ,Substation, ,1,220
105,162,-1,23.192139,38.462192,substation,Larymna, ,Substation,,-1,380
106,163,-1,22.70874,38.401949,substation,Distomo, ,Substation,,-1,380
1128,1359,0,35.936279,29.41089,substation,Disi, ,Substation, ,1,132
107,164,-1,21.994629,39.487085,substation,Trikala, ,Substation,,-1,380
1129,1360,0,35.81543,32.073266,substation,Al Fohes, ,Substation, ,1,132
108,165,-1,22.434082,39.529467,substation,Larissa, ,Substation,,-1,380
1130,1361,0,35.81543,31.980123,substation,University, ,Substation, ,1,132
109,166,-1,23.796387,37.857507,substation,Argyroupoli, ,Substation,,-1,380
1131,1362,0,35.925293,31.924193,substation,Al Ashrafea, ,Substation, ,1,132
110,167,-1,23.631592,37.996163,substation,Koumoundourou, ,Substation,,-1,380
1132,1363,0,36.177979,32.287133,substation,Al Rajehi Cement, ,Substation, ,1,132
111,168,-1,23.741455,38.22092,substation,Acharnes, ,Substation,,-1,380
112,169,-1,23.950195,37.926868,substation,Pallini, ,Substation,,-1,380
113,170,-1,23.928223,38.134557,substation,Ag. Stefanos, ,Substation,,-1,380
1133,1364,0,36.23291,31.774878,substation,Mwaqar Industry, ,Substation, ,1,132
114,171,-1,24.290771,40.979898,substation,Filippi, ,Substation,,-1,380
1134,1365,,-9.39331099999999,38.719805,substation,Trajouce, ,Substation,,1,220
1135,1367,0,36.342773,33.523079,substation,K1, ,Substation, ,1,220
115,174,1,21.478271,40.838749,fossil_brown_lignite,Meliti, ,Brown coal/Lignite,,-1,380
1136,1368,0,10.689697,35.648369,substation,Shaloul, ,Substation, ,1,220
116,176,-1,25.510254,41.203456,substation,N. Santa, ,Substation,,-1,380
1137,1376,0,5.789795,36.81808,fossil_mixed,Jijel, ,Mixed fuels, ,1,220
117,177,-1,23.192139,40.722283,substation,Lagadas, ,Substation,,-1,380
1138,1380,0,6.723633,36.90598,fossil_mixed,Skikda, ,Mixed fuels, ,1,220
1139,1382,0,1.97753899999999,36.5626,fossil_mixed,Hadjret Ennouss, ,Mixed fuels, ,1,380
118,178,1,23.203125,38.289937,fossil_coal_gas,Heron, ,Fossil gas,,-1,380
1140,1383,0,29.981689,25.987675,substation,Abi-Tar, ,Substation, ,1,220
119,179,-1,21.796875,38.177751,substation_cons,Patra, ,"Substation, under construction",,-1,380
1141,1393,0,35.244141,33.220308,substation,Sour, ,Substation, ,1,220
120,180,-1,22.906494,37.883525,substation_cons,Korinthos, ,"Substation, under construction",,-1,380
1142,1394,0,35.958252,33.815666,substation,Ksara, ,Substation, ,1,220
1143,1394,0,35.958252,33.815666,substation,Ksara, ,Substation, ,1,380
121,182,1,22.609863,40.647304,fossil_coal_gas,Enthes, ,Fossil gas,,-1,380
1144,1395,0,36.243896,34.089061,substation,Baalbeck, ,Substation, ,1,220
122,183,1,22.049561,40.497092,substation,Ag.Dimitrios, ,Substation,,-1,380
1145,1396,0,35.969238,34.443159,substation,Deir Amar, ,Substation, ,1,220
1146,1397,0,36.166992,34.343436,substation,Deir Nbouh, ,Substation, ,1,220
1147,1398,0,35.650635,33.733477,substation,Aramoun, ,Substation, ,1,220
1148,1399,0,35.804443,33.961586,substation,Mkalles, ,Substation, ,1,220
1149,1401,0,36.419678,34.388779,substation,Hermel, ,Substation, ,1,220
1150,1402,0,36.419678,34.261757,substation,Laboue, ,Substation, ,1,220
123,184,1,21.697998,40.313043,substation,Kardia, ,Substation,,-1,380
6771,7609,,3.40649742102515,36.5669315325086,,,,joint,,,220
6772,7610,,1.81244158460905,36.2273631798004,,,,joint,,,220
124,185,1,21.730957,40.647304,substation,Amyndeo, ,Substation,,-1,380
6773,7611,,2.94028922640838,35.7107947661442,,,,joint,,,220
1151,1403,0,35.826416,34.334364,substation,Bahsas, ,Substation, ,1,220
1152,1405,0,35.738525,34.089061,substation,Bsalim, ,Substation, ,1,220
1153,1407,0,35.716553,34.252676,substation,Halate, ,Substation, ,1,220
1154,1408,0,35.661621,33.970698,substation,Beyrut, ,Substation, ,1,220
1155,1409,0,35.562744,33.906896,substation,Ras Beyrut, ,Substation, ,1,220
125,186,1,23.983154,37.753344,substation,Lavrio, ,Substation,,-1,132
126,186,1,23.983154,37.753344,substation,Lavrio, ,Substation,,-1,380
1156,1410,0,35.584717,33.83392,substation,Pins, ,Substation, ,1,220
1157,1411,0,35.397949,33.587167,substation_cons,Saida, ,"Substation, under construction", ,1,220
1158,1412,0,35.332031,33.394759,substation,Zahrani, ,Substation, ,1,220
127,190,-1,20.401611,39.444678,substation,Mourtos, ,Substation,,-1,132
1159,1427,0,29.498291,30.883369,substation,Somid, ,Substation, ,1,220
128,191,,11.942139,42.024814,substation,Civitavecchia, ,Substation,,1,220
129,192,,14.348145,40.813809,fossil_coal_gas,Levante, ,Fossil gas,,1,220
1160,1428,0,29.937744,31.090574,substation,Iron Steel, ,Substation, ,1,220
130,199,,18.061523,40.513799,fossil_brown_lignite,Brindisi /S., ,Brown coal/Lignite,,1,380
1161,1429,0,29.256592,30.647364,substation,B. Arab, ,Substation, ,1,220
1162,1430,0,29.520264,30.666266,substation,Medalik, ,Substation, ,1,220
131,204,,8.21777299999999,40.86368,substation,Fiume Santo, ,Substation,,1,380
132,205,,8.448486,39.223743,substation,Portoscuso, ,Substation,,1,220
1163,1433,0,30.970459,30.533877,substation,T. Badr, ,Substation, ,1,220
1164,1434,0,30.201416,30.145127,substation,Sadat, ,Substation, ,1,220
133,206,,8.63525400000001,40.647304,substation,Codrongianus, ,Substation,,1,220
134,206,,8.63525400000001,40.647304,substation,Codrongianus, ,Substation,,1,380
1165,1435,0,31.234131,31.090574,substation,K.Shiekh, ,Substation, ,1,220
1166,1436,0,31.300049,30.911651,substation,Mahala, ,Substation, ,1,220
1167,1437,0,31.651611,30.968189,substation,Mansora, ,Substation, ,1,220
135,207,,16.787109,41.054502,substation,Bari, ,Substation,,1,380
1168,1438,0,31.695557,30.486551,substation,Zagazig, ,Substation, ,1,220
1169,1439,0,31.234131,30.647364,substation,Tanta, ,Substation, ,1,220
136,208,,8.67919900000001,40.680638,converter,Codrongianus, ,Converter Station,,1,
1170,1440,0,31.26709,29.945415,substation,Basous, ,Substation, ,1,220
1171,1440,0,31.26709,29.945415,substation,Basous, ,Substation, ,1,500
137,209,,9.21752900000001,40.111689,substation,Taloro, ,Substation,,1,220
6774,7613,,3.36188286265764,36.5718177772543,,,,joint,,,220
138,210,,9.04174799999999,40.254377,substation,Ottana, ,Substation,,1,220
6775,7614,,1.33221238161892,36.0505060471704,,,,joint,,,220
1172,1441,0,32.827148,30.524413,substation,East Qantara, ,Substation, ,1,220
139,211,,8.964844,39.232253,substation,Rumianca, ,Substation,,1,380
1173,1442,0,31.179199,30.287532,substation,Menuf, ,Substation, ,1,220
1174,1443,0,30.541992,29.926374,substation,Cairo 500, ,Substation, ,1,220
1175,1443,0,30.541992,29.926374,substation,Cairo 500, ,Substation, ,1,500
140,212,,8.964844,39.419221,substation,Villasor, ,Substation,,1,220
1176,1445,0,31.59668,30.230595,substation,A.Zaabal, ,Substation, ,1,220
1177,1445,0,31.59668,30.230595,substation,A.Zaabal, ,Substation, ,1,500
141,213,,9.18456999999999,39.376772,substation,Selargius, ,Substation,,1,220
142,213,,9.18456999999999,39.376772,substation,Selargius, ,Substation,,1,380
1178,1446,0,32.431641,30.059586,substation,Suez 500, ,Substation, ,1,220
1179,1446,0,32.431641,30.059586,substation,Suez 500, ,Substation, ,1,500
143,214,,9.16259800000001,40.245992,substation,Enichem, ,Substation,,1,220
1180,1449,0,31.168213,28.960089,substation,Kurimat, ,Substation, ,1,220
1181,1449,0,31.168213,28.960089,substation,Kurimat, ,Substation, ,1,500
144,215,,9.195557,41.211722,converter,S. Teresa, ,Converter Station,,1,
145,216,,14.150391,40.996484,substation,S. Maria, ,Substation,,1,380
146,217,,13.436279,37.892196,substation_cons,Ciminna, ,"Substation, under construction",,1,220
1182,1450,0,31.102295,28.632747,substation,B.Suef East, ,Substation, ,1,220
1183,1451,0,30.179443,30.306503,substation,Bustan, ,Substation, ,1,220
147,218,,12.502441,37.909534,substation,Trapani-Salemi, ,Substation,,1,220
1184,1452,0,28.99292,30.751278,substation,Omayed, ,Substation, ,1,220
148,219,,12.788086,37.71859,substation,Partanna, ,Substation,,1,220
149,220,,13.051758,38.022131,substation,Partinico, ,Substation,,1,220
1185,1453,0,31.772461,31.381779,substation,A.Hamam, ,Substation, ,1,220
1186,1454,0,31.519775,31.062345,substation,Talkha, ,Substation, ,1,220
1187,1455,0,30.311279,29.869229,substation,Zayed, ,Substation, ,1,220
150,221,,13.304443,38.160476,substation,Bellolampo, ,Substation,,1,220
1188,1456,,-0.538330000000004,38.22092,substation_cons,Santa Paula, ,"Substation, under construction",,1,220
151,222,,13.710938,37.952861,substation,Caracoli, ,Substation,,1,220
1189,1457,0,30.080566,28.940862,substation,Fayom West, ,Substation, ,1,220
1190,1458,0,30.805664,28.439714,substation,Maghaga West, ,Substation, ,1,220
152,223,,13.699951,37.343959,substation,Favara, ,Substation,,1,220
1191,1459,0,34.090576,30.977609,substation,Arish, ,Substation, ,1,220
153,224,,13.590088,37.935533,substation,Termini, ,Substation,,1,220
154,225,,14.161377,40.84706,substation,Patria, ,Substation,,1,220
155,225,,14.161377,40.84706,substation,Patria, ,Substation,,1,380
1192,1460,0,33.826904,30.637912,substation,Bghdad, ,Substation, ,1,220
6776,7615,,2.93884395233002,35.7999353912032,,,,joint,,,220
156,226,,14.304199,40.888601,substation,Frattamaggiore, ,Substation,,1,220
6777,7616,,3.48150856959993,36.5898968634666,,,,joint,,,380
157,227,,12.86499,41.418015,substation,Latina, ,Substation,,1,380
6778,7617,,2.64702893031369,36.4645205052217,,,,joint,,,220
158,228,,12.524414,41.705729,substation,Roma S., ,Substation,,1,220
159,228,,12.524414,41.705729,substation,Roma S., ,Substation,,1,380
1193,1461,0,28.564453,30.779598,substation_cons,Sarahman, ,"Substation, under construction", ,1,220
1194,1463,0,30.300293,30.524413,substation,A. Matamir, ,Substation, ,1,220
1195,1464,0,30.003662,30.543339,substation,Ghazl, ,Substation, ,1,220
1196,1465,0,30.058594,30.722949,substation,Aameria, ,Substation, ,1,220
160,229,,12.282715,41.853196,substation,Roma /O., ,Substation,,1,380
1197,1466,0,30.201416,30.902225,substation,Karmoz, ,Substation, ,1,220
1198,1467,0,29.783936,30.656816,substation_cons,A. Salas, ,"Substation, under construction", ,1,220
6729,7570,,12.7794916840187,42.0349341901951,,,,joint,,,380
6730,7571,,12.2316137742216,42.0367245714726,,,,joint,,,220
161,230,,12.513428,41.877741,substation,Roma /N., ,Substation,,1,220
162,230,,12.513428,41.877741,substation,Roma /N., ,Substation,,1,380
1199,1468,0,29.937744,30.968189,substation_cons,Max, ,"Substation, under construction", ,1,220
1200,1469,0,30.311279,31.052934,substation_cons,D.T, ,"Substation, under construction", ,1,220
163,231,,12.875977,41.672912,substation,Valmontone, ,Substation,,1,380
1201,1470,0,30.421143,30.930501,substation,K.D, ,Substation, ,1,220
164,232,,12.788086,41.746726,substation,Roma /E., ,Substation,,1,380
165,233,,13.612061,41.47566,substation,Ceprano, ,Substation,,1,380
166,234,,14.18335,41.302571,substation,Presenzano, ,Substation,,1,220
167,234,,14.18335,41.302571,substation,Presenzano, ,Substation,,1,380
1202,1471,0,30.454102,31.184609,substation,Siuf, ,Substation, ,1,220
168,235,,13.85376,41.19519,substation,Garigliano, ,Substation,,1,380
1203,1472,0,30.465088,31.043522,substation,Abis, ,Substation, ,1,220
1204,1475,0,30.585938,30.86451,substation,Damanhur, ,Substation, ,1,220
169,236,,14.282227,41.50035,substation,Capriati, ,Substation,,1,220
1205,1476,0,30.860596,30.600094,substation,Nobaria, ,Substation, ,1,220
1206,1476,0,30.860596,30.600094,substation,Nobaria, ,Substation, ,1,500
170,237,,16.578369,39.571822,substation,Rossano, ,Substation,,1,380
1207,1478,0,30.893555,31.16581,substation,Mahmudia, ,Substation, ,1,220
171,238,,15.292969,37.063944,substation,Priolo, ,Substation,,1,220
1208,1481,0,31.190186,31.28794,substation_cons,S. Salim, ,"Substation, under construction", ,1,220
172,239,,15.018311,37.474858,substation,Misterbianco, ,Substation,,1,220
1209,1482,0,31.607666,30.760719,substation_cons,S. Ghamar, ,"Substation, under construction", ,1,220
1210,1483,0,30.366211,30.240086,substation,Ezz, ,Substation, ,1,220
173,240,,14.611816,37.055177,substation,Chiaramonte Gulfi, ,Substation,,1,220
174,240,,14.611816,37.055177,substation,Chiaramonte Gulfi, ,Substation,,1,380
1211,1484,0,30.498047,30.334954,substation,E.A.S, ,Substation, ,1,220
1212,1485,0,30.673828,30.325471,substation_cons,I. Sadat, ,"Substation, under construction", ,1,220
175,241,,14.578857,36.826875,substation,Ragusa, ,Substation,,1,220
1213,1487,0,30.739746,30.958769,substation,I. Baroud, ,Substation, ,1,220
176,242,,15.073242,37.081476,substation,Anapo, ,Substation,,1,220
6779,7618,,1.75599774243697,36.2137024262537,,,,joint,,,220
177,243,,15.194092,37.09024,substation,Melilli, ,Substation,,1,220
1214,1489,0,30.541992,30.211608,substation,E. Ameroa, ,Substation, ,1,220
1215,1490,0,30.212402,29.726222,substation_cons,6 October Ind., ,"Substation, under construction", ,1,220
178,244,,14.919434,37.544577,substation,Paternò, ,Substation,,1,380
1216,1492,0,30.838623,29.954935,substation,Cairo W., ,Substation, ,1,220
1217,1492,0,30.838623,29.954935,substation,Cairo W., ,Substation, ,1,500
179,245,,15.150146,38.108628,substation,Corriolo, ,Substation,,1,220
180,246,,15.238037,38.08269,substation,Sorgente, ,Substation,,1,220
181,246,,15.238037,38.08269,substation,Sorgente, ,Substation,,1,380
1218,1493,0,30.827637,29.458731,substation,Cairo S., ,Substation, ,1,220
1219,1494,0,31.398926,29.859701,substation,Cairo N., ,Substation, ,1,220
1220,1496,0,31.036377,30.183122,substation_cons,Ashmon, ,"Substation, under construction", ,1,220
182,247,,15.227051,38.160476,substation,S. F. Mela, ,Substation,,1,220
183,247,,15.227051,38.160476,substation,S. F. Mela, ,Substation,,1,380
1221,1497,0,31.201172,30.078601,substation,Qaluobia, ,Substation, ,1,220
1222,1498,0,31.728516,30.334954,substation_cons,Aboor, ,"Substation, under construction", ,1,220
1223,1499,0,31.322021,30.467614,substation,Quesna, ,Substation, ,1,220
184,248,,16.270752,38.83115,substation,Feroleto, ,Substation,,1,380
185,249,,16.105957,38.350273,substation,Rizziconi, ,Substation,,1,380
1224,1500,0,31.431885,30.306503,substation_cons,Banha, ,"Substation, under construction", ,1,220
1225,1501,0,31.937256,30.798474,substation_cons,A. Kbeer, ,"Substation, under construction", ,1,220
1226,1502,0,32.13501,30.694612,substation,Sharkia, ,Substation, ,1,220
186,250,,14.644775,40.688969,substation,S. Valentino, ,Substation,,1,220
1227,1503,0,32.244873,30.486551,substation_cons,New Ismailia, ,"Substation, under construction", ,1,220
1228,1504,0,32.244873,30.39183,substation,Manayif, ,Substation, ,1,220
187,251,,14.47998,40.763901,substation,Torre, ,Substation,,1,220
1229,1505,0,32.34375,30.287532,substation,A. Sultan, ,Substation, ,1,220
188,252,,14.908447,40.555548,substation,Salerno, ,Substation,,1,220
1230,1509,0,32.365723,29.954935,substation,Suez 2, ,Substation, ,1,220
1231,1510,0,31.453857,30.078601,substation_cons,Obour, ,"Substation, under construction", ,1,220
1232,1511,0,31.783447,29.935895,substation,Heliopolis, ,Substation, ,1,220
1233,1512,0,31.937256,30.240086,substation,10 Ram, ,Substation, ,1,220
1234,1513,0,32.167969,30.249577,substation,New 10 Ram, ,Substation, ,1,220
1235,1514,0,30.355225,29.621221,substation,6 October, ,Substation, ,1,220
1236,1514,0,30.355225,29.621221,substation,6 October, ,Substation, ,1,500
189,253,,14.919434,40.663973,substation,Montecorvino, ,Substation,,1,220
190,253,,14.919434,40.663973,substation,Montecorvino, ,Substation,,1,380
1237,1515,0,32.036133,30.164126,substation_cons,Bader, ,"Substation, under construction", ,1,220
1238,1515,0,32.036133,30.164126,substation_cons,Bader, ,"Substation, under construction", ,1,500
1239,1516,0,31.530762,29.945415,substation,Bahtim, ,Substation, ,1,220
191,254,,14.523926,40.971604,substation,S. Sofia, ,Substation,,1,220
192,254,,14.523926,40.971604,substation,S. Sofia, ,Substation,,1,380
1240,1517,0,30.563965,29.439598,substation_cons,E. Bitak, ,"Substation, under construction", ,1,220
1241,1518,0,31.036377,29.707139,substation,Cairo, ,Substation, ,1,220
1242,1519,0,30.750732,29.821583,substation,Moatamedia, ,Substation, ,1,220
1243,1520,0,31.190186,29.792984,substation,Sabtia, ,Substation, ,1,220
193,255,,14.963379,41.14557,substation,Benevento, ,Substation,,1,380
194,256,,14.908447,41.877741,substation,Larino, ,Substation,,1,380
1244,1521,0,31.190186,29.171349,substation,Tebbin South, ,Substation, ,1,220
195,257,,15.633545,41.360319,substation,Foggia, ,Substation,,1,380
1245,1522,0,31.68457,28.988922,substation,Tebbin 500, ,Substation, ,1,220
1246,1522,0,31.68457,28.988922,substation,Tebbin 500, ,Substation, ,1,500
196,258,,16.171875,41.120746,substation,Andria, ,Substation,,1,380
1247,1523,0,31.014404,29.363027,substation,W. Houf, ,Substation, ,1,220
197,259,,15.952148,40.078071,substation,Laino, ,Substation,,1,380
1248,1525,0,30.838623,29.64032,substation_cons,Haram, ,"Substation, under construction", ,1,220
198,260,,15.996094,39.993956,substation,Rotonda, ,Substation,,1,220
1249,1526,0,30.783691,29.544788,substation,Hadaba, ,Substation, ,1,220
1250,1527,0,31.179199,29.688053,substation,N. Metro, ,Substation, ,1,220
199,261,,16.534424,40.287907,substation,Pisticci, ,Substation,,1,220
1251,1528,0,31.113281,29.563902,substation,A. Sera, ,Substation, ,1,220
1252,1529,0,31.179199,29.458731,substation,Basat, ,Substation, ,1,220
200,262,,16.655273,40.597271,substation,Matera, ,Substation,,1,380
1253,1530,0,31.717529,29.850173,substation,Saqr, ,Substation, ,1,220
201,263,,17.995605,40.57224,substation,Brindisi /S., ,Substation,,1,380
1254,1531,0,31.552734,29.554345,substation,Stad, ,Substation, ,1,220
202,264,,17.08374,39.036253,substation,Scandale, ,Substation,,1,380
1255,1532,0,31.673584,29.458731,substation,Cairo E., ,Substation, ,1,220
203,265,,17.20459,40.505446,substation,Taranto, ,Substation,,1,220
204,265,,17.20459,40.505446,substation,Taranto, ,Substation,,1,380
6780,7619,,2.59216398261248,36.5283227131471,,,,joint,,,220
6781,7619,,2.59216398261248,36.5283227131471,,,,joint,,,380
1256,1533,0,31.486816,29.382175,substation_cons,Mokatem, ,"Substation, under construction", ,1,220
205,266,,17.731934,40.613952,substation,Brindisi P., ,Substation,,1,220
206,266,,17.731934,40.613952,substation,Brindisi P., ,Substation,,1,380
1257,1534,0,31.651611,29.22889,substation,Katamia, ,Substation, ,1,220
1258,1535,0,31.904297,29.745302,substation,Cairo New, ,Substation, ,1,220
1259,1536,0,32.047119,29.563902,substation,Suez STL, ,Substation, ,1,220
207,267,,17.86377,40.522151,substation,Brindisi /S., ,Substation,,1,380
1260,1537,0,31.992188,29.477861,substation,Suez CEM, ,Substation, ,1,220
1261,1538,0,32.211914,29.22889,substation,EZZ STL, ,Substation, ,1,220
208,268,,17.852783,40.655639,substation,Brindisi /N., ,Substation,,1,220
209,268,,17.852783,40.655639,substation,Brindisi /N., ,Substation,,1,380
1262,1539,0,32.431641,29.238477,substation_cons,Swedy, ,"Substation, under construction", ,1,220
1263,1540,0,31.959229,28.786918,substation_cons,K. Kalsuom, ,"Substation, under construction", ,1,220
1264,1541,0,32.365723,28.758028,substation,Econ.1, ,Substation, ,1,220
210,269,,18.171387,39.97712,converter,Galatina, ,Converter Station,,1,
1265,1542,0,32.299805,28.960089,substation_cons,Econ.2, ,"Substation, under construction", ,1,220
211,270,,18.094482,39.993956,substation,Galatina, ,Substation,,1,380
1266,1543,0,30.893555,30.855079,substation,I. Baroud, ,Substation, ,1,220
212,273,,12.436523,41.828642,substation,S.Paolo, ,Substation,,1,220
1267,1544,0,31.135254,30.902225,substation_cons,K. Zauat, ,"Substation, under construction", ,1,220
1268,1544,0,31.135254,30.902225,substation_cons,K. Zauat, ,"Substation, under construction", ,1,500
213,274,,12.634277,41.746726,substation,unknown, ,Substation,,1,220
1269,1545,0,32.244873,30.977609,substation_cons,Petl, ,"Substation, under construction", ,1,220
214,276,,8.99780299999999,39.036253,substation,Sarlux, ,Substation,,1,380
1270,1547,0,31.047363,29.468297,substation_cons,Tora, ,"Substation, under construction", ,1,220
1271,1548,0,30.904541,29.783449,substation,Shobra, ,Substation, ,1,220
215,278,,16.018066,39.783213,substation,Altomonte, ,Substation,,1,380
1272,1549,0,30.882568,28.863918,substation,Demo, ,Substation, ,1,220
1273,1549,0,30.882568,28.863918,substation,Demo, ,Substation, ,1,500
485,729,,34.716797,31.784217,substation,unknown, ,Substation,,1,380
216,279,,15.556641,41.162114,fossil_coal_gas,Candela, ,Fossil gas,,1,380
1274,1551,0,33.925781,31.128199,substation,Al'afrsh, ,Substation, ,1,220
486,730,,34.958496,32.063956,substation,unknown, ,Substation,,1,132
487,730,,34.958496,32.063956,substation,unknown, ,Substation,,1,380
217,280,,16.633301,41.112469,substation,unknown, ,Substation,,1,380
1275,1553,0,33.409424,31.109389,substation,B.Elabed, ,Substation, ,1,220
218,281,,16.633301,38.899583,substation,Magisano, ,Substation,,1,380
1276,1554,0,33.079834,31.128199,substation,Pt. Said East, ,Substation, ,1,220
1277,1556,0,32.816162,31.015279,substation_cons, , ,"Substation, under construction", ,1,220
219,292,,15.018311,41.983994,substation,Termoli Energia, ,Substation,,1,380
488,731,,34.749756,31.475524,substation,unknown, ,Substation,,1,132
489,731,,34.749756,31.475524,substation,unknown, ,Substation,,1,380
1278,1557,0,32.178955,29.554345,substation, , ,Substation, ,1,220
220,294,0,15.216064,29.745302,substation, , ,Substation, ,1,220
1279,1559,0,32.585449,29.027355,substation,Suez Golf, ,Substation, ,1,220
221,299,,21.522217,42.016652,substation,Skopje 1, ,Substation,,1,220
1280,1561,0,32.651367,28.796546,substation,Sukhna, ,Substation, ,1,220
1281,1561,0,32.651367,28.796546,substation,Sukhna, ,Substation, ,1,500
490,733,,12.897949,41.393294,converter,Latina, ,Converter Station,,1,
222,300,,20.841064,41.697526,substation,Vrutok, ,Substation,,1,220
491,734,,-0.823974999999992,41.26955,substation,Belchite, ,Substation,,1,220
1282,1562,0,32.904053,28.439714,substation,Zafarana, ,Substation, ,1,220
223,301,,22.137451,41.566142,substation,Dubrovo, ,Substation,,1,380
1283,1564,0,33.826904,26.716174,substation,Safaga, ,Substation, ,1,220
492,736,,-0.823974999999992,40.84706,substation,Valdeconejos, ,Substation,,1,220
224,302,,21.478271,41.046217,substation,Bitola, ,Substation,,1,380
1284,1566,0,32.387695,31.222197,substation,Pt. Said, ,Substation, ,1,220
225,303,,22.214355,41.853196,substation,Stip, ,Substation,,1,380
493,737,,-0.911864999999989,40.763901,substation,S. Costera, ,Substation,,1,220
1285,1567,0,31.783447,31.128199,substation,Gamalia, ,Substation, ,1,220
226,304,0,37.727051,36.253133,substation,G, ,Substation, ,1,220
494,738,,-0.560302999999993,39.010648,substation,Valle del Carcer, ,Substation,,1,220
1286,1568,0,31.970215,31.043522,substation,Trust, ,Substation, ,1,220
227,311,,3.10913100000001,39.850721,other_nl,Murterar, ,Other or not listed,,1,220
495,739,,-0.417480000000009,39.138582,substation,Alcira, ,Substation,,1,220
1287,1572,0,31.530762,31.391158,substation,Domiat, ,Substation, ,1,220
228,315,,1.58203099999999,41.483891,substation,Pierola, ,Substation,,1,380
1288,1574,0,30.421143,31.372399,substation,A.Qir, ,Substation, ,1,220
1289,1574,0,30.421143,31.372399,substation,A.Qir, ,Substation, ,1,500
496,740,,-1.329346,39.470125,substation_cons,Godelleta, ,"Substation, under construction",,1,220
497,740,,-1.329346,39.470125,substation_cons,Godelleta, ,"Substation, under construction",,1,380
229,316,,-0.802002000000004,37.605528,substation,Fausita, ,Substation,,1,220
230,316,,-0.802002000000004,37.605528,substation,Fausita, ,Substation,,1,380
1290,1575,0,30.300293,31.184609,substation,Semo, ,Substation, ,1,220
1291,1576,0,29.696045,31.015279,substation,Dehk, ,Substation, ,1,220
231,317,,-1.07666000000001,37.744657,substation,La Asomada, ,Substation,,1,380
1292,1578,0,29.267578,30.807911,substation,S.Karir, ,Substation, ,1,220
1293,1578,0,29.267578,30.807911,substation,S.Karir, ,Substation, ,1,500
498,741,,29.179688,41.004775,substation,Küçükbakkalköy, ,Substation,,1,380
232,318,,-0.703124999999998,38.771216,substation,Benejama, ,Substation,,1,220
233,318,,-0.703124999999998,38.771216,substation,Benejama, ,Substation,,1,380
1294,1579,0,28.322754,31.034108,substation_cons,Dabaa, ,"Substation, under construction", ,1,220
1295,1579,0,28.322754,31.034108,substation_cons,Dabaa, ,"Substation, under construction", ,1,500
499,742,,32.585449,39.901309,substation,Bağlum, ,Substation,,1,380
500,744,,19.511719,41.975827,substation,V. Dejes, ,Substation,,1,220
234,319,,-0.538330000000004,38.5997,substation,Xixona, ,Substation,,1,220
1296,1581,0,30.750732,31.297328,substation_cons,Aatf, ,"Substation, under construction", ,1,220
1297,1582,0,31.14624,31.512996,substation_cons,Domiat West, ,"Substation, under construction", ,1,220
1298,1582,0,31.14624,31.512996,substation_cons,Domiat West, ,"Substation, under construction", ,1,500
235,321,,-0.823974999999992,37.770715,substation,N. Hoya Morena, ,Substation,,1,220
501,747,,-0.417480000000009,39.529467,substation_cons,P. Central, ,"Substation, under construction",,1,220
236,322,,-1.142578,38.281313,substation,Rocamora, ,Substation,,1,380
6782,7620,,2.61434008412857,36.5368079039058,,,,joint,,,220
6783,7620,,2.61434008412857,36.5368079039058,,,,joint,,,380
502,748,,42.780762,36.949892,substation,Zakho, ,Substation,,1,380
237,323,,-0.538330000000004,38.462192,substation,San Vicente, ,Substation,,1,220
503,749,,-1.16455100000001,41.327326,substation,Cabezo de San Roque, ,Substation,,1,220
1299,1583,0,31.431885,30.968189,substation_cons,Samanod, ,"Substation, under construction", ,1,220
238,324,,-0.670166000000004,38.177751,substation,Rojales, ,Substation,,1,220
1300,1584,0,32.431641,29.916852,substation,Ataqa, ,Substation, ,1,220
504,750,,-1.39526399999999,41.648288,substation,Jalón, ,Substation,,1,220
239,325,,-0.703124999999998,38.573938,substation,Petrel, ,Substation,,1,220
1301,1585,0,31.574707,29.697597,substation_cons,Matar, ,"Substation, under construction", ,1,220
1302,1586,0,31.376953,29.697597,substation_cons, , ,"Substation, under construction", ,1,220
505,751,,-0.230713000000006,39.75788,substation,Morvedre, ,Substation,,1,220
506,751,,-0.230713000000006,39.75788,substation,Morvedre, ,Substation,,1,380
240,326,,0.142822000000005,40.212441,substation,El Ingenio, ,Substation,,1,220
1303,1587,0,30.9375,29.238477,substation_cons,Tebbin, ,"Substation, under construction", ,1,220
241,327,,0.0329589999999936,40.036027,substation,Castello, ,Substation,,1,380
1304,1588,0,30.915527,29.61167,substation_cons,Giza, ,"Substation, under construction", ,1,220
242,328,,-0.878905999999996,39.138582,substation,M. Cortes, ,Substation,,1,380
1305,1589,0,32.629395,28.449374,substation_cons,Zafarana 2, ,"Substation, under construction", ,1,220
507,752,,1.92260700000001,41.697526,substation,Can Barba, ,Substation,,1,380
1306,1591,0,30.915527,28.738764,substation_cons,B.Suef West, ,"Substation, under construction", ,1,220
6731,7572,,12.1406619422848,42.0339873028695,,,,joint,,,220
508,753,,2.27417000000001,41.607228,substation,Gramanet, ,Substation,,1,220
509,753,,2.27417000000001,41.607228,substation,Gramanet, ,Substation,,1,380
1307,1592,0,33.299561,28.0235,substation_cons,Ros Ghorib, ,"Substation, under construction", ,1,220
1308,1592,0,33.299561,28.0235,substation_cons,Ros Ghorib, ,"Substation, under construction", ,1,500
6732,7573,,23.2796336119606,38.2115570167441,,,,joint,,,380
243,329,,-1.362305,39.206719,substation,Confrentes, ,Substation,,1,380
1309,1595,0,34.683838,28.168875,substation, , ,Substation, ,1,500
510,754,,2.340088,41.672912,substation,Sant Fost, ,Substation,,1,220
1310,1596,0,28.981934,25.898762,substation_cons,Blat, ,"Substation, under construction", ,1,220
244,330,,-0.802002000000004,39.198205,substation,Cortes II, ,Substation,,1,380
6739,7580,,2.72460899999999,41.902277,,,,joint,,,380
245,331,,-0.483397999999997,39.444678,substation,Torrente, ,Substation,,1,220
246,331,,-0.483397999999997,39.444678,substation,Torrente, ,Substation,,1,380
1311,1597,0,28.092041,26.12585,substation_cons,Moot, ,"Substation, under construction", ,1,220
6740,7581,,3.05692110622012,42.0271249766263,,,,joint,,,220
1312,1598,0,21.643066,32.87036,substation,Baida, ,Substation, ,1,380
1313,1599,0,20.269775,31.840233,substation_cons, , ,"Substation, under construction", ,1,380
511,757,,19.786377,41.623655,substation,Titan, ,Substation,,1,220
1314,1600,0,20.500488,31.905541,substation,Bengazi South, ,Substation, ,1,380
512,758,,19.830322,41.533254,substation,F. Kruje, ,Substation,,1,220
1315,1601,0,20.379639,31.980123,substation_cons, , ,"Substation, under construction", ,1,380
1316,1602,0,6.74560499999999,35.012002,substation,Zribet Hamed, ,Substation, ,1,220
513,763,,20.43457,40.772222,substation_cons,Moglice, ,"Substation, under construction",,1,220
247,332,,-0.538330000000004,39.257778,substation,Catadau, ,Substation,,1,220
248,332,,-0.538330000000004,39.257778,substation,Catadau, ,Substation,,1,380
1317,1603,0,-0.999755999999991,35.603719,substation,Boutlelis, ,Substation, ,1,220
514,764,,20.324707,40.938415,substation_cons,Kokel, ,"Substation, under construction",,1,220
1517,1838,,-8.23974600000001,41.021355,substation,Carrapatelo, ,Substation,,1,220
1518,1838,,-8.23974600000001,41.021355,substation,Carrapatelo, ,Substation,,1,380
515,765,,19.467773,40.497092,substation,Vlore, ,Substation,,1,220
1318,1604,0,0.175780999999998,35.835628,substation,Sirat, ,Substation, ,1,220
516,766,,30.410156,40.237605,substation,AKSA Göynük, ,Substation,,1,380
1319,1605,0,-0.0439449999999986,35.701917,substation,Mactaa, ,Substation, ,1,220
1320,1605,0,-0.0439449999999986,35.701917,substation,Mactaa, ,Substation, ,1,380
249,333,,-0.38452099999999,39.223743,substation,Bernat, ,Substation,,1,220
517,767,,29.608154,40.938415,substation,Makine OSB, ,Substation,,1,380
250,334,,-0.747069999999996,39.67337,substation,La Eliana, ,Substation,,1,220
251,334,,-0.747069999999996,39.67337,substation,La Eliana, ,Substation,,1,380
1321,1606,0,-1.054688,34.587997,substation,Ben Badis 2, ,Substation, ,1,220
518,768,,35.639648,38.427774,fossil_brown_lignite,Tufanbeyli, ,Brown coal/Lignite,,1,380
519,769,,36.090088,36.985003,substation,Atakaş, ,Substation,,1,380
252,335,,-0.714111000000002,40.871988,substation,C.T. Escucha, ,Substation,,1,220
520,771,,16.116943,40.32142,substation,Aliano, ,Substation,,1,380
1322,1608,0,33.024902,27.702984,substation_cons,Elziet 2, ,"Substation, under construction", ,1,500
253,336,,-0.230713000000006,40.128491,substation,La Plana, ,Substation,,1,220
254,336,,-0.230713000000006,40.128491,substation,La Plana, ,Substation,,1,380
521,772,,15.062256,40.938415,substation,Avellino, ,Substation,,1,380
522,773,,15.457764,40.896906,substation,Bisaccia, ,Substation,,1,380
523,774,,16.45752,38.779781,substation,Maida, ,Substation,,1,380
255,337,,-0.362549000000006,41.062786,substation,Teruel, ,Substation,,1,380
1323,1609,0,35.167236,30.002517,substation_cons,Aqaba North, ,"Substation, under construction", ,1,380
524,775,,15.46875,38.143198,substation_cons,Villafranca, ,"Substation, under construction",,1,380
256,338,,-0.461426000000012,41.310824,substation,Escatrón, ,Substation,,1,220
257,338,,-0.461426000000012,41.310824,substation,Escatrón, ,Substation,,1,380
525,776,,15.776367,38.177751,substation_cons,Scilla, ,"Substation, under construction",,1,380
1324,1610,0,35.672607,32.063956,substation_cons,Amman West, ,"Substation, under construction", ,1,132
1325,1610,0,35.672607,32.063956,substation_cons,Amman West, ,"Substation, under construction", ,1,380
526,777,,19.599609,41.746726,substation,Kolacem, ,Substation,,1,220
258,339,,-0.296630999999993,41.170384,substation,Aragon, ,Substation,,1,380
259,340,,0.549316000000009,41.137296,substation,Asco, ,Substation,,1,220
260,340,,0.549316000000009,41.137296,substation,Asco, ,Substation,,1,380
527,778,,1.38427700000001,41.319076,substation,Begues, ,Substation,,1,220
528,778,,1.38427700000001,41.319076,substation,Begues, ,Substation,,1,380
1326,1611,0,35.804443,31.896214,substation,Bayader, ,Substation, ,1,132
1327,1612,0,35.859375,31.924193,substation,Abdoun, ,Substation, ,1,132
261,341,,0.505371000000011,40.763901,substation,Vandellos, ,Substation,,1,220
262,341,,0.505371000000011,40.763901,substation,Vandellos, ,Substation,,1,380
529,779,,1.97753899999999,41.574361,substation,Can Jardi, ,Substation,,1,220
530,779,,1.97753899999999,41.574361,substation,Can Jardi, ,Substation,,1,380
1328,1613,0,41.143799,36.774092,substation_cons,Has.2, ,"Substation, under construction", ,1,220
1329,1613,0,41.143799,36.774092,substation_cons,Has.2, ,"Substation, under construction", ,1,380
263,342,,0.417480000000009,41.228249,substation,Riba Roja, ,Substation,,1,220
531,780,,1.84570299999999,41.533254,substation,Rubi, ,Substation,,1,220
532,780,,1.84570299999999,41.533254,substation,Rubi, ,Substation,,1,380
1330,1614,0,2.85644499999999,36.650793,substation,Inj. Ben Aknoun, ,Substation, ,1,220
264,343,,0.241699000000011,41.352072,substation,Mequinenza, ,Substation,,1,220
265,343,,0.241699000000011,41.352072,substation,Mequinenza, ,Substation,,1,380
1331,1615,0,2.23022499999999,36.456636,substation,A.E. Ain, ,Substation, ,1,220
1332,1616,0,2.66967800000001,36.385913,substation,Boufarik 2, ,Substation, ,1,220
266,344,,-0.747069999999996,41.71393,substation,Peñaflor, ,Substation,,1,220
267,344,,-0.747069999999996,41.71393,substation,Peñaflor, ,Substation,,1,380
533,781,,1.74682600000001,41.261291,substation,Viladecans, ,Substation,,1,220
1333,1617,0,3.06518600000001,36.438961,substation,Arbaa, ,Substation, ,1,220
534,782,,1.362305,41.178654,substation,Garraf, ,Substation,,1,380
1334,1618,0,2.37304699999999,36.571424,substation,Htatba, ,Substation, ,1,220
268,345,,-1.30737299999999,41.771312,substation,Entrerrios, ,Substation,,1,220
1335,1619,0,2.559814,36.553775,substation,Mazafran, ,Substation, ,1,220
535,783,,0.747069999999996,40.888601,substation,Bellissens, ,Substation,,1,220
1336,1620,0,2.88940400000001,36.73008,substation,Tafourah 2, ,Substation, ,1,220
269,346,,-1.010742,41.5497,substation,Montetorrero, ,Substation,,1,220
536,784,,0.90087900000001,40.979898,substation,Constanti, ,Substation,,1,220
1337,1621,0,3.16406199999999,36.553775,substation,Rouiba, ,Substation, ,1,220
6733,7574,,24.3514883301598,42.033376852244,,,,joint,,,220
537,785,,0.845947000000002,40.921814,substation,Tarragona, ,Substation,,1,220
1513,1835,,-8.38256799999999,40.622292,substation,Mourisca, ,Substation,,1,220
1338,1622,0,2.735596,36.641978,substation,Ain Benian 2, ,Substation, ,1,220
270,347,,-1.03271500000001,41.763117,substation,Villanueva, ,Substation,,1,220
6741,7582,,-0.856934000000011,41.631867,,,,joint,,,220
1339,1623,0,3.28491200000001,36.580247,substation,Alger Est, ,Substation, ,1,220
271,348,,0.208739999999992,41.910453,substation,Monzón, ,Substation,,1,220
538,786,,1.768799,41.71393,substation,Mas Figueras, ,Substation,,1,220
1340,1624,0,3.625488,36.800488,fossil_mixed,Ras Djinet, ,Mixed fuels, ,1,220
539,787,,2.05444300000001,41.418015,power_plus_sub,Barcelona area, ,Substations + Power Plants,,1,220
1341,1625,0,3.010254,36.589068,substation,Kouba, ,Substation, ,1,220
1342,1626,0,3.405762,36.624345,substation,Tidjelabine, ,Substation, ,1,220
540,791,,1.26342799999999,41.795888,substation,Pujalt, ,Substation,,1,220
1343,1627,0,3.03222699999999,36.677231,substation,Hamma, ,Substation, ,1,220
1344,1630,0,2.296143,36.332828,substation,El Affroun, ,Substation, ,1,220
1345,1630,0,2.296143,36.332828,substation,El Affroun, ,Substation, ,1,380
541,792,,-0.208739999999992,40.002372,substation_cons,Assegador, ,"Substation, under construction",,1,220
542,793,,-0.944824000000009,40.086477,substation,El Campo, ,Substation,,1,220
1346,1631,0,3.85620100000001,36.70366,substation,Sidi Naamane, ,Substation, ,1,220
1347,1632,0,4.05395499999999,36.456636,substation,Illiten 2, ,Substation, ,1,220
543,795,,1.494141,38.985033,substation,Torrent, ,Substation,,1,132
1348,1633,0,5.71289100000001,36.509636,substation,Ain Essebt, ,Substation, ,1,220
544,796,,1.461182,38.719805,substation,Formentera, ,Substation,,1,132
1349,1634,0,5.67993199999999,34.007135,substation,El Berd, ,Substation, ,1,220
1350,1635,0,6.52587899999999,33.550551,substation,El Oued, ,Substation, ,1,220
272,349,,0.593262000000012,41.590797,substation,Mangraners, ,Substation,,1,220
545,797,,1.417236,38.916682,substation,Ibiza, ,Substation,,1,132
1351,1637,0,34.552002,25.591994,substation_cons,Elqsier, ,"Substation, under construction", ,1,220
273,350,,2.559814,39.639538,substation,Valldurgent, ,Substation,,1,220
546,798,,4.09789999999999,39.985538,substation,Mercadal, ,Substation,,1,132
1352,1638,0,35.090332,24.507143,substation_cons,Marsa Aalm, ,"Substation, under construction", ,1,220
274,351,,2.867432,39.67337,substation,San Orlandis, ,Substation,,1,220
1353,1639,0,35.310059,23.775291,substation_cons,Shalati, ,"Substation, under construction", ,1,220
275,352,,2.702637,39.749434,substation,Son Reus, ,Substation,,1,220
547,799,,4.27368199999999,39.926588,substation,Mahon, ,Substation,,1,132
1354,1644,0,-0.274658000000005,35.791083,power_plus_sub,Marsat Poste, ,Substations + Power Plants, ,1,220
1355,1646,0,0.175780999999998,36.040216,substation,Mostaganem, ,Substation, ,1,380
1356,1647,0,0.966796999999997,35.880149,substation,Oued R'Hiou, ,Substation, ,1,220
1357,1648,0,4.53735399999999,36.447799,substation,Akbou 400, ,Substation, ,1,220
1358,1648,0,4.53735399999999,36.447799,substation,Akbou 400, ,Substation, ,1,380
1514,1836,,-8.55834999999999,41.071069,substation,Prelada, ,Substation,,1,220
276,353,,3.19702100000001,39.588757,substation,Es Bessons, ,Substation,,1,132
277,353,,3.19702100000001,39.588757,substation,Es Bessons, ,Substation,,1,220
548,800,,4.196777,39.867588,substation,Dragonera, ,Substation,,1,132
1359,1649,0,6.47094700000001,36.782892,substation,El Milia, ,Substation, ,1,220
549,802,,20.192871,41.967659,substation,Peshqesh, ,Substation,,1,220
278,354,,3.02124000000001,39.75788,substation,Llubi, ,Substation,,1,220
1360,1650,0,7.998047,34.921971,substation,Oglet Ouled Mahboub, ,Substation, ,1,220
1361,1650,0,7.998047,34.921971,substation,Oglet Ouled Mahboub, ,Substation, ,1,380
550,803,,-0.318604000000007,39.300299,substation_cons,Benicull, ,"Substation, under construction",,1,220
279,355,,1.56005900000001,41.943149,substation,Calders, ,Substation,,1,380
1362,1651,0,6.25122100000001,34.822823,substation,Sidi Okba, ,Substation, ,1,220
1363,1651,0,6.25122100000001,34.822823,substation,Sidi Okba, ,Substation, ,1,380
551,804,,-0.186768000000007,38.865375,substation_cons,Sancho Llop, ,"Substation, under construction",,1,220
280,356,,1.87866200000001,41.812267,substation,Sentmenat, ,Substation,,1,220
281,356,,1.87866200000001,41.812267,substation,Sentmenat, ,Substation,,1,380
552,805,0,31.245117,22.553147,substation,Toskat South West, ,Substation, ,1,220
1364,1652,0,2.966309,34.052659,substation,Laghouat 400, ,Substation, ,1,220
1365,1652,0,2.966309,34.052659,substation,Laghouat 400, ,Substation, ,1,380
553,806,0,31.289062,22.745789,substation,Toskat North West, ,Substation, ,1,220
282,357,,2.340088,42.024814,substation,Vic, ,Substation,,1,220
283,357,,2.340088,42.024814,substation,Vic, ,Substation,,1,380
1366,1653,,-0.878905999999996,37.996163,substation_cons,Balsicas, ,"Substation, under construction",,1,380
554,807,0,31.431885,23.089838,substation,local, ,Substation, ,1,220
1367,1654,,-0.681152000000009,38.091337,substation_cons,Torrevieja, ,"Substation, under construction",,1,220
284,358,,2.208252,41.8941,substation,Centelles, ,Substation,,1,220
555,808,0,34.771729,29.430029,substation,Taba South West, ,Substation, ,1,220
1368,1655,,-0.736083999999991,38.22955,substation_cons,Saladas, ,"Substation, under construction",,1,220
556,809,0,32.541504,26.194877,substation,Awlad Amr South West, ,Substation, ,1,220
285,359,,2.438965,41.853196,substation,S. Celoni, ,Substation,,1,220
1369,1656,,3.85620100000001,39.935013,substation,Ciudadela, ,Substation,,1,132
557,810,0,20.115967,30.958769,substation,Qaryat PP, ,Substation, ,1,220
1370,1657,,26.553955,40.354917,substation,Sütlüce, ,Substation,,1,380
286,360,,2.85644499999999,41.902277,substation,Bescano, ,Substation,,1,380
1371,1658,,26.564941,38.453589,wind,Çeşme RES, ,Wind farm,,1,380
287,361,,3.098145,42.000325,substation,Juia, ,Substation,,1,220
558,811,0,16.051025,29.305561,substation,Hun North East, ,Substation, ,1,220
1372,1660,,30.498047,39.325799,substation,Eskişehir 3, ,Substation,,1,380
288,362,,-0.351561999999997,39.470125,substation,F. S. Luis, ,Substation,,1,220
559,812,0,25.037842,31.597253,substation,Local, ,Substation, ,1,220
1373,1661,,37.628174,40.921814,substation,Ordu, ,Substation,,1,380
560,813,0,24.136963,31.961484,substation,Local, ,Substation, ,1,220
289,363,,0.867919999999991,41.409776,substation,Montblanc, ,Substation,,1,220
1374,1662,,41.066895,40.472024,substation,Y. Tortum, ,Substation,,1,380
1375,1664,1,24.532471,38.013476,substation,Livadi, ,Substation,,-1,132
290,365,,-0.90087900000001,41.442726,substation,Maria de Huerva, ,Substation,,1,220
561,814,0,22.587891,32.778038,substation,Darna, ,Substation, ,1,220
1376,1665,1,24.884033,37.796763,substation,Andros, ,Substation,,-1,132
291,366,,-1.010742,41.343825,substation,Los Vientos, ,Substation,,1,220
562,815,0,20.083008,31.886887,substation,Bangazi West, ,Substation, ,1,220
1377,1666,1,24.927979,37.448697,substation_cons,Syros, ,"Substation, under construction",,-1,132
292,368,,-1.010742,37.596824,substation,Escombreras, ,Substation,,1,220
293,368,,-1.010742,37.596824,substation,Escombreras, ,Substation,,1,380
1378,1667,1,25.356445,37.448697,substation_cons,Mykonos, ,"Substation, under construction",,-1,132
563,816,0,20.22583,32.119801,substation,Al Mhayshi, ,Substation, ,1,220
1379,1668,1,25.213623,37.099003,substation_cons,Paros, ,"Substation, under construction",,-1,132
564,817,0,10.371094,30.240086,substation,Daradsch, ,Substation, ,1,220
1380,1673,0,-0.90087900000001,35.684072,substation,Ain El Kerma, ,Substation, ,1,220
294,369,,-0.450439000000003,38.376115,substation,El Palmeral, ,Substation,,1,220
565,818,0,10.601807,31.212801,substation, , ,Substation, ,1,220
1515,1837,,-8.393555,41.112469,substation,Recarei, ,Substation,,1,220
1516,1837,,-8.393555,41.112469,substation,Recarei, ,Substation,,1,380
295,370,,-0.329590000000012,40.555548,substation,Morella, ,Substation,,1,380
566,819,0,10.931396,31.746854,substation,Al Khirabh, ,Substation, ,1,220
1381,1674,0,-0.681152000000009,35.639441,substation,Petit Lac, ,Substation, ,1,220
296,371,,-0.714111000000002,40.722283,substation,Mezquita, ,Substation,,1,220
297,371,,-0.714111000000002,40.722283,substation,Mezquita, ,Substation,,1,380
567,820,0,13.414307,30.401307,substation,Al Qaryah al Gharbiyah, ,Substation, ,1,220
1382,1675,0,-0.626221000000005,35.710838,substation,Oran West, ,Substation, ,1,220
6734,7575,,24.3352248428742,41.7630905719123,,,,joint,,,220
568,821,0,13.282471,30.42973,substation,Tabaqah West, ,Substation, ,1,220
1383,1676,0,-0.472411999999992,35.773258,substation,El Yasmine 2, ,Substation, ,1,220
569,822,0,12.788086,31.316101,substation,Fassano South East, ,Substation, ,1,220
1384,1677,0,-0.966796999999997,35.415915,substation,El Maleh, ,Substation, ,1,220
298,372,,-1.04370099999999,41.186922,substation,Fuendetodos, ,Substation,,1,220
299,372,,-1.04370099999999,41.186922,substation,Fuendetodos, ,Substation,,1,380
1385,1678,0,-0.845947000000002,35.254591,substation,Ain Temouchent 3, ,Substation, ,1,220
570,823,0,16.12793,29.152161,substation,Waddan, ,Substation, ,1,220
1386,1679,0,-0.351561999999997,35.128894,substation,Sidi Bel Abes, ,Substation, ,1,220
571,824,0,17.53418,28.565225,substation,Zillah, ,Substation, ,1,220
300,373,,-0.78002899999999,41.385052,substation,El Ventero, ,Substation,,1,220
1387,1680,0,-0.0988770000000062,35.173808,substation,Bouhnifia 2, ,Substation, ,1,220
572,825,0,15.194092,32.305706,substation,Misrata East 1, ,Substation, ,1,220
1388,1681,0,-0.76904300000001,35.621582,substation,Messerghine, ,Substation, ,1,220
301,374,,-0.0439449999999986,41.664705,substation,Peñalba, ,Substation,,1,380
1389,1682,0,-0.395507999999999,35.871247,fossil_mixed,Kahrama, ,Mixed fuels, ,1,220
573,826,0,15.062256,32.314991,substation,Misrata, ,Substation, ,1,220
302,377,,1.31835899999999,38.976492,substation,San Antonio, ,Substation,,1,132
1390,1683,0,-0.340575999999992,35.835628,fossil_mixed,Marsat, ,Mixed fuels, ,1,220
574,827,0,15.303955,32.23139,substation,Misrata East 2, ,Substation, ,1,380
303,378,,3.88916,40.027614,substation,Ciudadela, ,Substation,,1,132
1391,1686,0,2.71362300000001,33.934245,substation,Laghouat 3, ,Substation, ,1,220
304,379,,-0.988770000000011,41.450961,substation,El Olivar, ,Substation,,1,220
1392,1687,0,3.16406199999999,34.288992,substation,El Assafia, ,Substation, ,1,220
575,828,0,21.621094,27.264396,substation,Al Khuweimat, ,Substation, ,1,132
1393,1689,0,5.51513699999999,31.914868,substation,Ouargla 2, ,Substation, ,1,220
305,380,,-0.758057000000005,41.50035,substation,Ave Zaragoza, ,Substation,,1,220
576,829,0,23.291016,24.126702,substation,Kufra 2, ,Substation, ,1,132
1394,1690,0,5.46020499999999,32.082575,substation,Said Otba, ,Substation, ,1,220
306,381,,0.329590000000012,41.869561,substation,Cinca, ,Substation,,1,220
577,830,0,10.843506,32.008076,substation,Ghezaia, ,Substation, ,1,132
1395,1693,0,6.196289,32.481963,substation,Inj El Hadjira, ,Substation, ,1,220
307,382,,2.85644499999999,41.771312,substation_cons,Riudarenes, ,"Substation, under construction",,1,380
1396,1694,0,5.80078100000001,32.379961,substation,El Hadjira, ,Substation, ,1,220
578,831,0,11.678467,31.980123,substation,Al Jawsh, ,Substation, ,1,220
308,383,,1.17553699999999,41.087632,substation,Foix, ,Substation,,1,220
1397,1696,0,6.811523,33.449777,substation,El Oued 2, ,Substation, ,1,220
309,385,,0.966796999999997,41.170384,substation,Castellet, ,Substation,,1,220
1398,1697,0,6.04247999999999,33.26625,substation,Touggourt 400, ,Substation, ,1,220
1399,1697,0,6.04247999999999,33.26625,substation,Touggourt 400, ,Substation, ,1,380
579,832,0,11.447754,31.774878,substation,Al Harabah West, ,Substation, ,1,132
310,387,,-0.955810999999992,41.104191,substation,Muniesa, ,Substation,,1,380
580,833,0,12.700195,31.980123,substation,El Gawalesh East, ,Substation, ,1,220
1400,1698,0,6.97631799999999,33.220308,substation,Nakhla, ,Substation, ,1,220
311,388,,0.0219729999999886,40.296287,substation,Benadresa, ,Substation,,1,220
581,834,0,14.315186,26.480407,substation,Ghadduwah, ,Substation, ,1,220
312,392,,-1.04370099999999,39.010648,substation,Ayora, ,Substation,,1,380
1401,1699,0,6.635742,33.431441,substation,El Oued 400, ,Substation, ,1,220
1402,1699,0,6.635742,33.431441,substation,El Oued 400, ,Substation, ,1,380
313,394,,-0.0329589999999936,38.719805,substation,Montebello, ,Substation,,1,220
582,835,0,14.512939,27.039557,substation,Sabha East, ,Substation, ,1,220
1403,1700,0,6.899414,33.696923,substation,Reguiba, ,Substation, ,1,220
314,395,,-0.812988000000009,38.530979,substation,Novelda, ,Substation,,1,220
1404,1701,0,7.00927699999999,33.614619,substation,Debila, ,Substation, ,1,220
6742,7583,,20.192871,42.032974,,,,joint,,,220
315,396,,-0.736083999999991,38.307181,substation,Elche Sur, ,Substation,,1,220
1405,1702,0,7.207031,33.879537,substation,Taleb Larbi, ,Substation, ,1,220
583,836,0,14.633789,27.205786,substation,Tamanhint, ,Substation, ,1,220
316,397,,-1.19751,37.918201,substation,El Palmar, ,Substation,,1,220
317,397,,-1.19751,37.918201,substation,El Palmar, ,Substation,,1,380
1406,1703,0,5.614014,34.578952,substation,Oumache, ,Substation, ,1,380
584,837,0,14.348145,27.176469,substation,Sabha North, ,Substation, ,1,220
1407,1704,0,5.80078100000001,34.234512,substation,M'Ghaier, ,Substation, ,1,220
1408,1705,0,5.08667,34.849875,substation,Tolga 400, ,Substation, ,1,220
1409,1705,0,5.08667,34.849875,substation,Tolga 400, ,Substation, ,1,380
585,838,0,13.359375,26.549223,substation,Al Quaraya, ,Substation, ,1,220
318,399,,2.53784200000001,39.53794,substation,Santa Ponsa, ,Substation,,1,132
319,399,,2.53784200000001,39.53794,substation,Santa Ponsa, ,Substation,,1,220
586,839,0,14.18335,31.746854,substation,Bani Walid South East, ,Substation, ,1,220
1410,1706,0,4.92187500000001,34.687428,substation,El Ghrous, ,Substation, ,1,220
587,840,0,12.062988,32.778038,substation,Agelat, ,Substation, ,1,220
1411,1707,0,4.93286099999999,34.506557,substation,O Djellal, ,Substation, ,1,220
320,400,,-0.834960999999997,41.95949,substation,Rio Gállego, ,Substation,,1,220
1412,1708,0,5.921631,34.894942,substation,Biskra 2, ,Substation, ,1,220
588,841,0,12.678223,32.787275,substation,Al Harsha, ,Substation, ,1,220
321,401,,-0.659179999999999,41.943149,substation,Tardienta, ,Substation,,1,220
1413,1709,0,5.63598600000001,34.903953,substation,Chetma, ,Substation, ,1,220
322,402,,0.51635699999999,41.492121,substation,Torres del Segre, ,Substation,,1,220
1414,1710,0,5.438232,34.759666,substation,El Hadjeb, ,Substation, ,1,220
589,842,0,13.106689,32.713355,substation,Swani, ,Substation, ,1,220
323,403,,0.791015999999999,41.409776,substation,La Espluga, ,Substation,,1,220
324,403,,0.791015999999999,41.409776,substation,La Espluga, ,Substation,,1,380
1415,1711,0,7.37182599999999,34.867905,substation,Negrine, ,Substation, ,1,220
590,843,0,13.07373,32.842674,substation,Ghot Alshal, ,Substation, ,1,220
1416,1712,0,6.38305700000001,35.424868,substation,Tazoult, ,Substation, ,1,220
591,844,0,13.491211,32.750323,substation,Ed Dachla, ,Substation, ,1,220
1417,1713,0,6.49292,35.371135,substation,Tazoult, ,Substation, ,1,220
1418,1713,0,6.49292,35.371135,substation,Tazoult, ,Substation, ,1,380
325,404,,-0.318604000000007,39.58029,substation_cons,Aqua, ,"Substation, under construction",,1,220
592,845,0,14.326172,32.62087,substation,Al-Chums, ,Substation, ,1,220
326,405,,-0.38452099999999,39.740986,substation,Gaussa, ,Substation,,1,380
1419,1714,0,6.756592,35.451721,substation,Kais, ,Substation, ,1,380
327,406,,-0.219727000000001,39.867588,substation,Sagunto, ,Substation,,1,220
1420,1717,0,7.36083999999999,35.85344,substation,Ain Beida, ,Substation, ,1,220
593,846,0,23.104248,32.537552,substation,Zawiyat, ,Substation, ,1,220
328,407,,-0.681152000000009,38.00482,substation,San Miguel, ,Substation,,1,220
1421,1719,0,8.184814,36.90598,fossil_mixed,Koudiet Eddraouch, ,Mixed fuels, ,1,380
594,847,0,14.787598,26.096255,substation,Umm Al Aranib, ,Substation, ,1,220
329,408,,-0.725098000000012,38.401949,substation,Saladas, ,Substation,,1,220
595,848,0,14.908447,25.878994,substation, , ,Substation, ,1,220
1422,1720,0,8.404541,36.826875,substation,Boutheldja, ,Substation, ,1,220
330,409,,-0.51635699999999,41.137296,substation_cons,Mudejar, ,"Substation, under construction",,1,380
596,849,0,14.567871,24.246965,substation,Tajarhi, ,Substation, ,1,220
1423,1721,0,7.470703,36.923548,substation,Berrahal, ,Substation, ,1,220
1424,1721,0,7.470703,36.923548,substation,Berrahal, ,Substation, ,1,380
331,412,,0.285644999999988,41.607228,substation,Albatarrec, ,Substation,,1,220
597,850,0,19.764404,28.912015,substation,Zelten, ,Substation, ,1,220
332,413,,0.670166000000004,41.508577,substation,Alcarrás, ,Substation,,1,220
1425,1722,0,7.53662100000001,36.800488,substation,Kherraza, ,Substation, ,1,220
598,851,0,19.819336,29.468297,substation, , ,Substation, ,1,220
333,415,,-0.802002000000004,39.993956,substation,Segorbe, ,Substation,,1,220
1426,1723,0,7.81127899999999,36.75649,substation,El Hadjar, ,Substation, ,1,220
599,853,0,5.28442399999999,35.85344,substation,Salah Bey, ,Substation, ,1,220
600,853,0,5.28442399999999,35.85344,substation,Salah Bey, ,Substation, ,1,380
334,416,,-0.51635699999999,40.027614,substation,Vall d'Uxo, ,Substation,,1,220
1427,1724,0,7.294922,36.483141,substation,Guelma, ,Substation, ,1,220
335,417,,0.703124999999998,40.78886,substation,Plana del Vent, ,Substation,,1,380
601,854,0,8.23974600000001,36.712467,substation,Chefia, ,Substation, ,1,220
602,854,0,8.23974600000001,36.712467,substation,Chefia, ,Substation, ,1,380
336,418,,-0.197754000000012,41.062786,substation,Castelnou, ,Substation,,1,380
1428,1725,0,7.77832,36.27085,substation,Souk Ahras, ,Substation, ,1,220
1429,1726,0,7.94311499999999,36.377068,substation,Souk Ahras 2, ,Substation, ,1,220
337,419,,-1.010742,38.608286,substation,Sax, ,Substation,,1,380
1430,1727,0,7.63549799999999,36.430122,substation,Nador, ,Substation, ,1,220
603,855,0,6.69067400000001,33.788279,substation,El Amiria, ,Substation, ,1,220
338,420,,-1.26342799999999,38.848264,substation_cons,Campanario, ,"Substation, under construction",,1,380
1431,1728,0,7.14111300000001,36.888408,substation,PB 1, ,Substation, ,1,220
6743,7584,,-0.538330000000004,39.563353,,,,joint,,,220
339,421,,-0.263672,39.104489,substation,Valldigna, ,Substation,,1,220
1432,1729,0,6.39404299999999,36.853252,substation,El Milia, ,Substation, ,1,220
1433,1729,0,6.39404299999999,36.853252,substation,El Milia, ,Substation, ,1,380
604,856,0,6.21826199999999,33.137551,substation,Touggourt 2, ,Substation, ,1,220
340,422,,-0.153808999999988,38.950865,substation,Gandia, ,Substation,,1,220
605,857,0,0.142822000000005,35.398006,substation,Mascara, ,Substation, ,1,220
341,423,,-0.758057000000005,37.952861,substation,Campoamor, ,Substation,,1,220
606,858,0,-0.505371000000011,32.898038,substation,Naama, ,Substation, ,1,220
342,426,,-0.63720700000001,39.504041,substation,Aldaya, ,Substation,,1,220
607,859,0,5.24047899999999,34.732584,substation,Tolga, ,Substation, ,1,220
343,427,,-0.472411999999992,39.597223,substation,Beniferri, ,Substation,,1,220
344,428,,-0.131836,39.816975,substation,Sidmed, ,Substation,,1,220
345,429,,2.76855499999999,39.529467,substation,Cas Tresorer, ,Substation,,1,220
346,437,,27.443848,39.113014,fossil_brown_lignite,Soma B, ,Brown coal/Lignite,,1,380
347,440,,27.861328,37.212832,fossil_brown_lignite,Yenikoy, ,Brown coal/Lignite,,1,380
348,441,,28.179932,37.274053,fossil_brown_lignite,Yatağan, ,Brown coal/Lignite,,1,380
608,860,0,7.04223600000001,36.862043,substation,PB 1, ,Substation, ,1,220
349,442,,27.553711,38.255436,substation,Işiklar, ,Substation,,1,380
350,443,,28.78418,40.229218,substation,B. Sanayi, ,Substation,,1,380
351,444,,30.992432,40.996484,substation,Osmanca, ,Substation,,1,380
352,445,,27.817383,39.622615,substation,Balikesir II, ,Substation,,1,380
353,446,,27.312012,40.371659,substation,Karabiga, ,Substation,,1,380
609,861,0,7.437744,35.648369,substation,F'Kirina, ,Substation, ,1,220
610,861,0,7.437744,35.648369,substation,F'Kirina, ,Substation, ,1,380
354,447,,27.070312,38.728376,substation,Aliağa 2, ,Substation,,1,380
355,448,,26.982422,38.281313,substation,Uzundere, ,Substation,,1,380
611,862,0,6.95434600000001,36.721274,substation,Ramdane Djamel, ,Substation, ,1,220
612,862,0,6.95434600000001,36.721274,substation,Ramdane Djamel, ,Substation, ,1,380
356,449,,29.245605,37.744657,substation,Denizli, ,Substation,,1,380
357,450,,31.530762,37.483577,substation,Seydisehir, ,Substation,,1,380
613,863,0,6.020508,35.862344,substation,Ain Djasser, ,Substation, ,1,220
358,451,,30.311279,38.925229,fossil_brown_lignite,Seyitömer-B, ,Brown coal/Lignite,,1,380
359,452,,27.872314,41.021355,fossil_coal_gas,Unimar, ,Fossil gas,,1,380
614,864,0,41.055908,36.368222,substation,Al Hawl, ,Substation, ,1,220
360,454,,26.894531,41.574361,substation,Babaeski, ,Substation,,1,380
615,865,0,40.803223,36.712467,substation,Al Hasakah North, ,Substation, ,1,220
361,455,,29.212646,41.054502,substation,Ûmraniye, ,Substation,,1,380
616,866,0,40.935059,37.081476,substation,Amude, ,Substation, ,1,220
362,456,,29.256592,41.14557,substation,Paşaköy, ,Substation,,1,380
617,867,0,40.6604,37.063944,substation,Darbasiyah, ,Substation, ,1,220
363,457,,29.443359,40.921814,substation,Tepeören, ,Substation,,1,380
618,868,0,40.078125,36.853252,substation,Ras Al Ayn, ,Substation, ,1,220
364,458,,31.519775,41.261291,fossil_coal_hard,Ereğli TES, ,Hard coal,,1,380
619,869,0,40.583496,36.553775,substation,Al Hasakah West, ,Substation, ,1,220
365,459,,29.124756,40.245992,fossil_coal_gas,Bursa, ,Fossil gas,,1,380
620,870,0,40.671387,36.738884,substation,Safa NW, ,Substation, ,1,220
366,460,,31.212158,36.985003,hydro_pure_storage,Oymapinar, ,Hydro pure storage,,1,380
367,461,,30.629883,36.993778,substation,Varsak, ,Substation,,1,380
621,871,0,39.891357,36.5626,substation, , ,Substation, ,1,220
368,462,,32.453613,38.134557,substation,Konya, ,Substation,,1,380
622,872,0,38.748779,34.533712,substation,T3, ,Substation, ,1,220
369,463,,31.970215,39.656456,substation,Sincan, ,Substation,,1,380
623,873,0,38.847656,34.867905,substation,As Suknah, ,Substation, ,1,380
624,874,0,36.112061,33.541395,substation,Dimas, ,Substation, ,1,220
625,874,0,36.112061,33.541395,substation,Dimas, ,Substation, ,1,380
370,464,,31.981201,39.334297,substation,Temelli, ,Substation,,1,380
6744,7585,,-1.40684120683112,32.2028618117714,,,,joint,,,132
371,465,,30.498047,38.427774,substation,Kocatepe, ,Substation,,1,380
372,466,,33.815918,40.430224,substation,Çankırı, ,Substation,,1,380
626,875,0,36.309814,32.556074,substation,Al Musayfrah, ,Substation, ,1,220
627,876,0,36.44165,32.519026,substation,Miarbah, ,Substation, ,1,220
628,877,0,36.243896,32.750323,substation,Al Hrak, ,Substation, ,1,220
629,878,0,37.045898,36.129002,substation,Asad, ,Substation, ,1,220
373,467,,36.068115,40.530502,substation,Kayabaşı, ,Substation,,1,380
630,879,0,36.705322,34.786739,substation,Ter Maela, ,Substation, ,1,220
631,880,0,36.760254,34.533712,substation,Jandar NW, ,Substation, ,1,220
632,881,0,36.584473,34.488448,substation,Al Qusayr, ,Substation, ,1,220
633,882,0,40.264893,35.308401,substation,Deir Alzoor 2, ,Substation, ,1,220
374,468,,35.804443,41.418015,hydro_pure_storage,Altinkaya Sant, ,Hydro pure storage,,1,380
634,883,0,36.68335,32.87036,substation,Shahba, ,Substation, ,1,220
375,471,,35.69458,36.800488,fossil_coal_hard,Sügozü TES, ,Hard coal,,1,380
635,884,0,37.155762,36.129002,substation,D, ,Substation, ,1,220
376,472,,36.101074,37.134045,substation,Erzin, ,Substation,,1,380
636,885,0,36.672363,33.952474,substation,Yabroud, ,Substation, ,1,220
377,473,,36.375732,37.614231,substation,Andirin, ,Substation,,1,380
637,886,0,36.287842,33.486435,substation,Sharki, ,Substation, ,1,220
6735,7576,,20.1150634449749,42.0333717010962,,,,joint,,,220
6736,7577,,-1.41088490928024,41.7271179884536,,,,joint,,,220
378,474,,37.144775,37.186579,substation,G.Andep II, ,Substation,,1,380
379,475,,38.419189,37.692514,hydro_pure_storage,Ataturk Sant, ,Hydro pure storage,,1,380
638,887,0,8.756104,36.949892,substation,Tabarca, ,Substation, ,1,132
380,476,,35.375977,37.230328,substation,Adana, ,Substation,,1,380
639,888,0,-1.30737299999999,34.741612,substation,Tlemcen, ,Substation, ,1,220
381,479,,39.429932,38.556757,hydro_pure_storage,Karakaya, ,Hydro pure storage,,1,380
640,889,0,40.803223,36.253133,substation, , ,Substation, ,1,220
382,480,,39.902344,39.223743,hydro_ror,Özlüce, ,Hydro run of river & pondage,,1,380
641,890,0,-0.571288999999998,35.200745,substation,Sidi Bel Abes 2, ,Substation, ,1,220
383,482,,40.45166,37.169072,substation,Kiziltepe, ,Substation,,1,380
642,891,0,-0.90087900000001,35.092945,substation,Sidi Ali Boussidi, ,Substation, ,1,220
643,891,0,-0.90087900000001,35.092945,substation,Sidi Ali Boussidi, ,Substation, ,1,380
384,483,,40.03418,38.298559,substation,D. Bakir III, ,Substation,,1,380
385,484,,37.803955,39.427707,fossil_brown_lignite,Kangal Sant., ,Brown coal/Lignite,,1,380
386,485,,40.814209,39.690281,substation,Erzurum, ,Substation,,1,380
644,892,0,-0.439452999999998,35.675147,substation,Hassi Ameur, ,Substation, ,1,220
645,892,0,-0.439452999999998,35.675147,substation,Hassi Ameur, ,Substation, ,1,380
387,486,,43.121338,40.78886,substation,Kars, ,Substation,,1,380
388,487,,41.934814,41.228249,hydro_pure_storage,Deriner, ,Hydro pure storage,,1,380
6745,7586,,40.8020985979818,36.7037532561301,,,,joint,,,220
389,488,,39.342041,41.021355,substation,Tirebolu N., ,Substation,,1,380
390,489,,37.023926,41.037931,substation,Carsamba, ,Substation,,1,380
646,893,0,4.40551799999999,36.518466,substation,Akbou, ,Substation, ,1,220
391,490,,37.023926,40.880295,hydro_pure_storage,H.Ugurlu, ,Hydro pure storage,,1,380
647,894,0,7.70141600000001,36.93233,substation,Bouguentas, ,Substation, ,1,220
392,491,,42.626953,40.086477,substation,Horasan, ,Substation,,1,380
648,895,0,6.82251000000001,36.800488,substation,Skikda, ,Substation, ,1,220
393,492,,26.51001,38.548165,wind,Lodos RES, ,Wind farm,,1,380
649,896,0,6.888428,36.870832,fossil_mixed,SKS, ,Mixed fuels, ,1,380
394,494,,34.112549,38.61687,substation,Yeşilhisar, ,Substation,,1,380
650,897,0,-0.395507999999999,35.532226,substation,Zahana, ,Substation, ,1,220
651,898,0,5.94360399999999,36.782892,substation,Jijel, ,Substation, ,1,220
395,495,,36.947021,38.642618,fossil_brown_lignite,Elbistan-A, ,Brown coal/Lignite,,1,380
652,899,0,7.17407200000001,35.46067,substation,Khenchela, ,Substation, ,1,220
396,496,,37.078857,39.876019,substation,Deçeko, ,Substation,,1,380
653,900,0,4.65820300000001,36.686041,substation,El Kseur, ,Substation, ,1,220
397,497,,42.099609,37.457418,substation,Cizre, ,Substation,,1,380
654,901,0,6.51489300000001,36.049099,substation,Ain M'lila, ,Substation, ,1,220
398,498,,28.751221,41.178654,substation,Habibler, ,Substation,,1,380
655,902,0,-0.362549000000006,33.26625,substation,Naama 400, ,Substation, ,1,220
656,902,0,-0.362549000000006,33.26625,substation,Naama 400, ,Substation, ,1,380
399,499,,28.751221,41.079351,substation,Ikitelli, ,Substation,,1,380
400,500,,28.959961,41.162114,substation,Alibeyköy, ,Substation,,1,380
657,903,0,5.251465,36.359375,substation,Système Ouest, ,Substation, ,1,220
401,501,,27.004395,39.97712,fossil_brown_lignite,Can, ,Brown coal/Lignite,,1,380
658,904,0,4.735107,36.066862,substation,Bourdj Bou Arréridj, ,Substation, ,1,220
402,502,,31.080322,39.715638,hydro_pure_storage,Gokçekaya, ,Hydro pure storage,,1,380
403,503,,30.476074,40.555548,substation,Akyazi Sant, ,Substation,,1,380
659,905,0,5.47119099999999,36.182225,substation,El Hassi, ,Substation, ,1,220
404,504,,30.476074,40.880295,fossil_coal_gas,Adapazari 1 DGKCS, ,Fossil gas,,1,380
660,906,0,4.48242200000001,35.701917,substation,M´Sila, ,Substation, ,1,220
661,906,0,4.48242200000001,35.701917,substation,M´Sila, ,Substation, ,1,380
405,505,,30.618896,40.896906,fossil_coal_gas,Adapazari 2 DGKCS, ,Fossil gas,,1,380
406,506,,31.47583,39.926588,fossil_brown_lignite,Cayirhan, ,Brown coal/Lignite,,1,380
407,507,,32.805176,36.465472,substation,Ermenek Sant, ,Substation,,1,380
662,907,0,4.108887,35.164828,substation,El Hamel, ,Substation, ,1,220
408,508,,36.265869,36.81808,substation,Isdemir, ,Substation,,1,380
663,908,0,2.94433599999999,35.46067,substation,Ain Oussera, ,Substation, ,1,220
409,509,,35.870361,36.315125,substation,Antakya, ,Substation,,1,380
410,511,,36.265869,37.848833,substation,Kisik, ,Substation,,1,380
664,909,0,1.768799,36.279707,substation,Kherba, ,Substation, ,1,220
411,512,,34.189453,39.00211,substation,Urgtp, ,Substation,,1,380
665,910,0,0.142822000000005,34.912962,substation,Saida, ,Substation, ,1,220
412,513,,34.991455,39.27479,substation,Kayseri Kap., ,Substation,,1,380
666,911,0,6.17431599999999,35.56798,substation,Batna, ,Substation, ,1,220
413,516,,40.748291,38.134557,substation,Batman, ,Substation,,1,380
667,912,0,5.14160200000001,35.380093,substation,Barika, ,Substation, ,1,220
668,912,0,5.14160200000001,35.380093,substation,Barika, ,Substation, ,1,380
414,517,,39.100342,37.081476,hydro_pure_storage,Ş.Urfa, ,Hydro pure storage,,1,380
415,519,,27.608643,39.155622,wind,Soma RES, ,Wind farm,,1,380
416,521,,27.279053,38.754083,fossil_coal_gas,Izmir DGKCS, ,Fossil gas,,1,380
669,913,0,2.81249999999999,36.597889,substation,Dely Brahim 2, ,Substation, ,1,220
417,523,,29.212646,39.27479,substation,Tuncbilek, ,Substation,,1,380
670,914,0,2.076416,36.571424,substation,Cherchell, ,Substation, ,1,220
418,528,,34.705811,36.949892,substation,Mersin, ,Substation,,1,380
419,530,,41.264648,37.735969,substation,Ilisu Sant, ,Substation,,1,380
420,533,,32.310791,39.614152,substation,Gölbaşı, ,Substation,,1,380
671,915,0,1.19751,36.084621,substation,Oued Sly, ,Substation, ,1,220
421,535,,34.793701,41.186922,substation,Boyabat Sant, ,Substation,,1,380
422,542,,30.19043,40.805494,substation,Adapazari, ,Substation,,1,380
672,916,0,3.19702100000001,34.75064,substation,Djelfa, ,Substation, ,1,220
423,543,,29.069824,41.153842,substation,Zekeriyaköy, ,Substation,,1,380
673,917,0,1.955566,36.261992,substation,El Khemis, ,Substation, ,1,220
424,544,,28.981934,41.079351,substation,Yildiztepe, ,Substation,,1,380
425,545,,29.465332,37.900865,substation_cons,RWE Denizli DGKCS, ,"Substation, under construction",,1,380
674,918,0,3.54858400000001,32.324276,substation,Ghardaia  2, ,Substation, ,1,220
426,548,,36.815186,38.539573,substation,Elbistan, ,Substation,,1,380
675,919,0,5.46020499999999,34.948991,substation,Biskra, ,Substation, ,1,220
427,549,,39.133301,38.985033,substation,Keban, ,Substation,,1,380
676,920,0,3.68042000000001,32.509762,substation,Ghardaia 3, ,Substation, ,1,220
428,550,,39.232178,39.690281,substation_cons,Bagistas HES, ,"Substation, under construction",,1,380
677,921,0,3.47167999999999,32.472695,substation,Ghardaia, ,Substation, ,1,220
429,551,,32.629395,39.791655,substation_cons,Kayaş, ,"Substation, under construction",,1,380
678,922,0,6.196289,31.849565,substation,Hassi Messaoud North, ,Substation, ,1,220
430,552,,31.717529,41.418015,fossil_coal_hard,Eren TES, ,Hard coal,,1,380
679,923,0,5.99853499999999,33.073131,substation,Touggourt, ,Substation, ,1,220
431,553,,32.739258,41.853196,fossil_brown_lignite_cons,Amasra TES, ,"Brown coal/Lignite, under construction",,1,380
680,926,0,6.25122100000001,30.86451,substation,Nezla, ,Substation, ,1,220
6737,7578,,2.09044674477819,42.0361777317606,,,,joint,,,220
681,927,0,5.88867200000001,31.625321,substation,Hassi Messaoud West, ,Substation, ,1,220
682,927,0,5.88867200000001,31.625321,substation,Hassi Messaoud West, ,Substation, ,1,380
432,556,,36.430664,41.211722,fossil_coal_gas,Cengiz, ,Fossil gas,,1,380
433,557,,38.583984,40.763901,substation_cons,Kozbaki, ,"Substation, under construction",,1,380
434,558,,37.683105,40.178873,hydro_pure_storage_cons,Akinci HES, ,"Hydro pure storage, under construction",,1,380
683,928,0,6.47094700000001,30.533877,substation,Gassi Toui, ,Substation, ,1,220
435,559,,40.671387,40.472024,hydro_pure_storage_cons,Arkun HES, ,"Hydro pure storage, under construction",,1,380
684,929,0,6.141357,31.128199,substation,Belhiren, ,Substation, ,1,220
436,560,,40.583496,40.296287,hydro_pure_storage_cons,Aksu Sant, ,"Hydro pure storage, under construction",,1,380
685,930,0,3.06518600000001,32.962586,substation,Tilghemt, ,Substation, ,1,220
437,561,,41.506348,41.14557,hydro_pure_storage_cons,Artvin HES, ,"Hydro pure storage, under construction",,1,380
686,931,0,6.71264599999999,29.697597,substation,Rhoud Ennous,Rhoud Ennous,Substation, ,1,220
438,562,,42.242432,37.370157,substation_cons,Silopi TES, ,"Substation, under construction",,1,380
917,1108,,-9.14062499999999,38.925229,substation,Fanhões, ,Substation,,1,220
918,1108,,-9.14062499999999,38.925229,substation,Fanhões, ,Substation,,1,380
439,563,,42.473145,37.291535,substation,Karkey, ,Substation,,1,380
687,932,0,1.13159199999999,35.281501,substation,Tiaret 2, ,Substation, ,1,220
440,564,,40.979004,37.805444,substation,Gercus, ,Substation,,1,380
688,933,0,1.77978500000001,35.603719,substation,Tissemsilt, ,Substation, ,1,220
441,567,0,31.80542,29.573457,substation, , ,Substation, ,1,220
442,569,,26.685791,40.455307,substation,Gelibolu, ,Substation,,1,380
689,934,0,5.99853499999999,32.008076,substation,Hassi Messaoud 400, ,Substation, ,1,220
690,934,0,5.99853499999999,32.008076,substation,Hassi Messaoud 400, ,Substation, ,1,380
443,570,,26.784668,40.354917,substation,Lapseki, ,Substation,,1,380
444,571,,27.70752,40.287907,fossil_coal_gas,Bandirma DGKCS, ,Fossil gas,,1,380
691,935,0,2.88940400000001,33.751748,substation,Laghouat, ,Substation, ,1,220
445,584,,27.641602,38.582526,substation,Manisa, ,Substation,,1,380
692,936,0,0.527343999999999,35.826721,substation,Relizane, ,Substation, ,1,220
446,611,,35.881348,37.212832,substation,Toscelik, ,Substation,,1,380
693,937,0,1.109619,35.442771,substation,Tiaret, ,Substation, ,1,220
447,621,,38.902588,37.744657,substation,Hilvan, ,Substation,,1,380
694,938,0,2.93335000000001,36.137875,substation,Berrouaghia, ,Substation, ,1,220
448,630,,43.516846,38.522384,substation,Van, ,Substation,,1,380
449,631,,41.220703,38.203655,substation,Siirt, ,Substation,,1,380
695,939,0,6.33911100000001,36.244273,substation,Oued Athmania, ,Substation, ,1,220
696,939,0,6.33911100000001,36.244273,substation,Oued Athmania, ,Substation, ,1,380
450,637,,41.52832,41.004775,hydro_pure_storage_cons,Yusufeli HES, ,"Hydro pure storage, under construction",,1,380
451,643,,29.707031,40.813809,fossil_coal_gas,Nuh En., ,Fossil gas,,1,380
697,940,0,3.65844699999999,36.102376,substation,Bir Ghbalou, ,Substation, ,1,220
698,940,0,3.65844699999999,36.102376,substation,Bir Ghbalou, ,Substation, ,1,380
452,647,,28.267822,41.104191,substation_cons,Catalca, ,"Substation, under construction",,1,380
453,648,,28.894043,41.046217,substation,Davutpaşa, ,Substation,,1,380
699,941,0,7.88818400000001,35.871247,substation,El Aouinet, ,Substation, ,1,220
454,649,,40.847168,41.087632,substation_cons,Kalkandere, ,"Substation, under construction",,1,380
700,942,0,3.52661099999999,36.553775,substation,Si Mustapha, ,Substation, ,1,220
701,942,0,3.52661099999999,36.553775,substation,Si Mustapha, ,Substation, ,1,380
455,652,,41.572266,41.459195,substation,Hope, ,Substation,,1,380
456,653,,42.077637,41.779505,converter_b2b,Akhaltsikhe, ,Converter Station Back-to-back,,1,380
702,943,0,6.83349599999999,36.22655,substation,Khroub, ,Substation, ,1,220
457,654,,41.901855,41.975827,substation,Batum, ,Substation,,1,380
703,944,0,4.152832,36.694851,substation,Tizi Ouzou, ,Substation, ,1,220
6738,7579,,1.60215678357812,41.5767408867348,,,,joint,,,380
458,655,,27.872314,37.046409,fossil_brown_lignite,Kemerkoy Sant, ,Brown coal/Lignite,,1,380
704,945,0,7.954102,35.478565,substation,Tebessa, ,Substation, ,1,220
459,656,,20.137939,39.901309,substation,Bistrica, ,Substation,,1,132
705,946,0,5.32836900000001,36.553775,substation,Darguinah, ,Substation, ,1,220
460,657,,22.532959,41.376809,substation,Susica, ,Substation,,1,132
706,947,0,-1.230469,35.451721,substation,Terga, ,Substation, ,1,380
461,658,,23.214111,41.43449,substation,Petrich, ,Substation,,1,132
462,659,,8.21777299999999,40.913513,converter,Fiume Santo,,Converter Station,,1,
707,948,0,2.252197,34.025348,substation,Aflou 2, ,Substation, ,1,220
463,678,,28.619385,40.996484,fossil_coal_gas,Ambarli-B, ,Fossil gas,,1,380
708,949,0,3.26293899999999,33.045508,substation,Hassi R'Mel, ,Substation, ,1,220
709,949,0,3.26293899999999,33.045508,substation,Hassi R'Mel, ,Substation, ,1,380
464,680,,31.508789,39.35129,fossil_brown_lignite,Yunusemre TES, ,Brown coal/Lignite,,1,380
465,693,,40.144043,39.061849,hydro_pure_storage,Beyhani-I, ,Hydro pure storage,,1,380
466,697,,36.156006,36.465472,fossil_coal_hard,Atlas Enerji, ,Hard coal,,1,380
710,950,0,1.03271500000001,33.715202,substation,El Bayadh, ,Substation, ,1,220
467,703,,26.861572,38.754083,fossil_coal_hard,İzdemir TES, ,Hard coal,,1,380
711,951,0,7.75634799999999,35.272532,substation,Cheria, ,Substation, ,1,220
468,707,,29.4104,40.86368,fossil_coal_gas,Yeni Enerji, ,Fossil gas,,1,380
712,952,0,7.03125,34.840859,substation,Labreg, ,Substation, ,1,220
469,708,,30.19043,37.116526,fossil_coal_gas,Aksa Antalya DGKCS, ,Fossil gas,,1,380
713,953,0,6.723633,33.073131,substation,El Bayadha, ,Substation, ,1,220
470,711,,27.58667,41.845013,fossil_coal_gas_cons,Sedko DGKÇ, ,"Fossil gas, under construction",,1,380
471,712,,27.454834,41.746726,fossil_coal_gas_cons,Verbena, ,"Fossil gas, under construction",,1,380
714,954,0,0.692138999999993,35.451721,substation,Oued El Abtal, ,Substation, ,1,220
715,954,0,0.692138999999993,35.451721,substation,Oued El Abtal, ,Substation, ,1,380
472,713,,28.850098,41.120746,substation,Atisalani, ,Substation,,1,380
473,714,,28.828125,41.021355,substation,Yenisbosna, ,Substation,,1,380
716,955,0,10.184326,24.846565,substation,Al Birkah South, ,Substation, ,1,220
474,715,,29.157715,41.153842,substation,Beykoz, ,Substation,,1,380
717,956,0,22.093506,26.912274,substation,Srir, ,Substation, ,1,132
718,956,0,22.093506,26.912274,substation,Srir, ,Substation, ,1,220
475,716,,29.586182,40.78886,fossil_coal_gas,Ova Elk., ,Fossil gas,,1,380
476,717,,27.158203,40.170479,fossil_coal_hard,Bekirli TES, ,Hard coal,,1,380
477,718,,29.223633,40.963308,substation,Maltepe GIS, ,Substation,,1,380
719,957,0,21.533203,29.046566,substation,Jalu, ,Substation, ,1,220
478,719,,35.705566,37.247821,substation,Yolbulan, ,Substation,,1,380
720,958,0,20.247803,30.562261,substation,Ajdabiyah South, ,Substation, ,1,220
479,720,,35.617676,37.561997,substation,Kozan, ,Substation,,1,380
721,959,0,20.269775,30.902225,substation,Ajdabiyah, ,Substation, ,1,220
722,959,0,20.269775,30.902225,substation,Ajdabiyah, ,Substation, ,1,380
480,721,,35.529785,37.448697,substation,Sanibey, ,Substation,,1,380
481,722,,37.386475,37.134045,substation,Gaziantep V, ,Substation,,1,380
482,723,,40.056152,37.081476,substation,Elgün, ,Substation,,1,380
723,960,0,19.731445,30.363396,substation,Marsa al Burayquah (east), ,Substation, ,1,220
483,724,,42.385254,37.361426,substation,PS3, ,Substation,,1,380
724,961,0,10.184326,24.996016,substation,Ghat, ,Substation, ,1,220
484,725,,32.453613,37.692514,substation,Eregli, ,Substation,,1,380
725,962,0,10.360107,25.403585,substation,Tahala, ,Substation, ,1,220
726,963,0,10.557861,25.79,substation,Sardales, ,Substation, ,1,220
727,964,0,12.733154,26.588527,substation,Ubari West, ,Substation, ,1,220
6746,7587,,9.72710998168122,37.0273005280143,,,,joint,,,132
6747,7587,,9.72710998168122,37.0273005280143,,,,joint,,,380
728,965,0,21.610107,27.595935,substation,Srir West, ,Substation, ,1,132
729,965,0,21.610107,27.595935,substation,Srir West, ,Substation, ,1,220
730,965,0,21.610107,27.595935,substation,Srir West, ,Substation, ,1,380
731,966,0,14.403076,26.88288,substation,Sabha south, ,Substation, ,1,220
732,967,0,14.468994,25.948166,substation,Traghan East, ,Substation, ,1,220
733,968,0,14.315186,27.078692,substation,Sabha west, ,Substation, ,1,220
734,969,0,14.436035,27.098254,substation,Sabha, ,Substation, ,1,220
735,969,0,14.436035,27.098254,substation,Sabha, ,Substation, ,1,380
736,970,0,14.886475,27.225326,substation,Semnu, ,Substation, ,1,220
737,971,0,15.095215,27.722436,substation,WADI ariel, ,Substation, ,1,220
738,972,0,14.996338,28.207609,substation,GMMR2, ,Substation, ,1,220
739,973,0,14.611816,28.998532,substation,GMMR1, ,Substation, ,1,220
740,973,0,14.611816,28.998532,substation,GMMR1, ,Substation, ,1,380
741,974,0,14.051514,31.484893,substation,Beni Waled, ,Substation, ,1,220
742,974,0,14.051514,31.484893,substation,Beni Waled, ,Substation, ,1,380
743,975,0,14.172363,27.527758,substation,El Shati, ,Substation, ,1,220
744,976,0,21.09375,25.65143,substation,Tazerbo East, ,Substation, ,1,132
745,977,0,21.599121,25.542441,substation,Tezerbo Industry East-N, ,Substation, ,1,132
746,978,0,21.599121,25.453195,substation,Waterpump Tazerbo Mid, ,Substation, ,1,132
747,979,0,21.599121,25.363882,substation,Tazerbo Water Pump South, ,Substation, ,1,132
748,980,0,22.049561,27.634874,substation,Srir Mid, ,Substation, ,1,132
749,981,0,15.238037,31.381779,substation,Zamzem, ,Substation, ,1,220
750,982,0,13.634033,32.398516,substation,Tarhuna south, ,Substation, ,1,220
751,983,0,8.73413099999999,36.712467,substation,Bouhertma, ,Substation, ,1,132
752,984,0,10.184326,36.650793,substation,Naassen, ,Substation, ,1,132
753,984,0,10.184326,36.650793,substation,Naassen, ,Substation, ,1,220
754,985,0,10.250244,36.747688,substation,Rades, ,Substation, ,1,132
755,985,0,10.250244,36.747688,substation,Rades, ,Substation, ,1,220
756,986,0,11.107178,33.477272,substation,El Bibane, ,Substation, ,1,132
757,987,0,10.656738,33.348885,substation,Medenine, ,Substation, ,1,220
758,988,0,9.602051,35.826721,substation,Oueslatia, ,Substation, ,1,220
759,988,0,9.602051,35.826721,substation,Oueslatia, ,Substation, ,1,380
760,989,0,10.041504,33.916013,substation,Ghannouch, ,Substation, ,1,132
761,989,0,10.041504,33.916013,substation,Ghannouch, ,Substation, ,1,220
762,990,0,10.480957,32.971804,substation,Tataouine, ,Substation, ,1,220
763,990,0,10.480957,32.971804,substation,Tataouine, ,Substation, ,1,380
764,991,0,9.61303700000001,34.615127,substation,Maknassy, ,Substation, ,1,132
765,991,0,9.61303700000001,34.615127,substation,Maknassy, ,Substation, ,1,220
766,992,0,8.42651399999999,34.316218,substation,Metlaoui, ,Substation, ,1,132
767,993,0,8.54736300000001,35.85344,substation,Tajeourine, ,Substation, ,1,132
768,993,0,8.54736300000001,35.85344,substation,Tajeourine, ,Substation, ,1,220
769,994,0,8.76709000000001,35.119909,substation,Kasserine, ,Substation, ,1,132
6748,7588,,-1.40724571005946,34.7850012438335,,,,joint,,,220
770,995,0,8.87695299999999,35.263562,substation,Kasserine Nord, ,Substation, ,1,132
771,996,0,10.623779,35.675147,substation,M'Saken, ,Substation, ,1,132
772,997,0,10.678711,35.782171,substation,Sousse, ,Substation, ,1,132
773,997,0,10.678711,35.782171,substation,Sousse, ,Substation, ,1,220
774,998,0,10.447998,35.89795,substation,Akouda, ,Substation, ,1,132
775,999,0,10.447998,36.306272,substation,Bouficha, ,Substation, ,1,132
776,999,0,10.447998,36.306272,substation,Bouficha, ,Substation, ,1,220
777,1000,0,10.601807,36.447799,substation,Hammamet, ,Substation, ,1,132
778,1000,0,10.601807,36.447799,substation,Hammamet, ,Substation, ,1,220
779,1001,0,10.50293,36.606709,substation,Grombalia, ,Substation, ,1,132
780,1001,0,10.50293,36.606709,substation,Grombalia, ,Substation, ,1,220
781,1002,0,9.019775,33.67864,substation,Kebili, ,Substation, ,1,132
782,1003,0,8.05297900000001,33.906896,substation,Tozeur, ,Substation, ,1,132
783,1004,0,8.4375,35.021,substation,Sotacib, ,Substation, ,1,132
784,1005,0,8.536377,34.903953,substation,Feriana, ,Substation, ,1,132
785,1006,0,10.129395,35.746512,substation,Kairouan, ,Substation, ,1,220
786,1007,0,9.93164099999999,33.523079,substation,Gabes Sud, ,Substation, ,1,132
787,1008,0,9.854736,33.870416,substation,Bouchema, ,Substation, ,1,132
788,1008,0,9.854736,33.870416,substation,Bouchema, ,Substation, ,1,220
789,1008,0,9.854736,33.870416,substation,Bouchema, ,Substation, ,1,380
790,1009,0,9.79980499999999,33.60547,substation,Cim. Gabes, ,Substation, ,1,132
6749,7589,,-1.40625,31.933517,,,,joint,,,220
6750,7590,,36.3589143568687,35.7357541542021,,,,joint,,,220
6751,7590,,36.3589143568687,35.7357541542021,,,,joint,,,380
791,1010,0,9.51416000000001,35.38905,substation,Hajeb El Ayoun, ,Substation, ,1,220
792,1011,0,10.546875,35.737595,substation,M'Saken Nord, ,Substation, ,1,132
793,1011,0,10.546875,35.737595,substation,M'Saken Nord, ,Substation, ,1,220
794,1012,0,10.656738,35.38905,substation,El Jem, ,Substation, ,1,132
795,1015,0,10.283203,36.164488,substation,CIM Ennfidha, ,Substation, ,1,132
796,1016,,-9.09668,38.788345,substation,A.S. João, ,Substation,,1,220
797,1017,0,9.7229,37.020098,substation,Mateur, ,Substation, ,1,132
798,1017,0,9.7229,37.020098,substation,Mateur, ,Substation, ,1,380
799,1018,0,9.92065400000001,36.677231,substation,Mornaguia, ,Substation, ,1,132
800,1018,0,9.92065400000001,36.677231,substation,Mornaguia, ,Substation, ,1,220
801,1018,0,9.92065400000001,36.677231,substation,Mornaguia, ,Substation, ,1,380
802,1019,0,10.05249,36.465472,substation,Bir M´Cherga, ,Substation, ,1,132
803,1019,0,10.05249,36.465472,substation,Bir M´Cherga, ,Substation, ,1,220
804,1020,0,10.05249,36.791691,substation,Tunis, ,Substation, ,1,132
